web_browser,operating_sys,from_url,to_url,city,latitude,longitude,time_zone,time_in,time_out
Mozilla/5.0 ,Windows NT 6.1,facebook.com,ncbi.nlm.nih.gov,Danvers,42.576698,-70.954903,America/New_York,2012-03-16 18:40:47,2012-03-15 14:48:38
Mozilla/4.0 ,Windows NT 6.1,t.co,boxer.senate.gov,Washington,38.9007,-77.043098,America/New_York,2012-03-16 18:40:50,2012-03-16 17:45:41
Mozilla/5.0 ,Windows NT 6.1,shrewsbury-ma.gov,shrewsbury-ma.gov,Shrewsbury,42.286499,-71.714699,America/New_York,2012-03-16 18:40:51,2010-05-12 13:53:31
Mozilla/5.0 ,Windows NT 6.1,shrewsbury-ma.gov,shrewsbury-ma.gov,Shrewsbury,42.286499,-71.714699,America/New_York,2012-03-16 18:40:52,2010-05-12 13:55:06
Mozilla/5.0 ,"Windows NT 5.1) AppleWebKit/535.11 (KHTML, like Gecko) Chrome/17.0.963.79 Safari/535.11",plus.url.google.com,nasa.gov,Luban,51.116699,15.2833,Europe/Warsaw,2012-03-16 18:40:55,2012-03-16 18:34:14
Mozilla/5.0 ,Macintosh,t.co,oversight.house.gov,Washington,38.937599,-77.092796,America/New_York,2012-03-16 18:40:59,2012-03-15 12:50:38
Mozilla/5.0 ,"Windows NT 6.1) AppleWebKit/535.11 (KHTML, like Gecko) Chrome/17.0.963.79 Safari/535.11",forum2.hkgolden.com,ssd.noaa.gov,Central District,22.2833,114.150002,Asia/Hong_Kong,2012-03-16 18:41:03,2011-09-29 17:40:30
Mozilla/5.0 ,"Windows NT 6.1) AppleWebKit/535.11 (KHTML, like Gecko) Chrome/17.0.963.79 Safari/535.11",forum2.hkgolden.com,usno.navy.mil,Central District,22.2833,114.150002,Asia/Hong_Kong,2012-03-16 18:41:03,2011-09-29 17:40:39
Mozilla/5.0 ,Macintosh,t.co,usda.gov,Buckfield,44.299702,-70.369797,America/New_York,2012-03-16 18:41:04,2012-03-15 19:26:16
Mozilla/5.0 ,Windows NT 6.1,facebook.com,nasa.gov,Venice,45.438599,12.3267,Europe/Rome,2012-03-16 18:41:04,2012-03-16 18:34:14
Mozilla/5.0 ,Windows NT 6.1,facebook.com,voyager.jpl.nasa.gov,Alcal,37.516701,-5.9833,Africa/Ceuta,2012-03-16 18:41:05,2012-03-13 20:29:09
Mozilla/5.0 ,Macintosh,facebook.com,nasa.gov,Davidsonville,38.939201,-76.635002,America/New_York,2012-03-16 18:41:07,2012-03-16 18:34:14
Mozilla/5.0 ,Macintosh,facebook.com,tricare.mil,Lititz,40.174999,-76.3078,America/New_York,2012-03-16 18:41:07,2012-02-26 00:57:09
Mozilla/5.0 ,Windows,facebook.com,nasa.gov,Bilbao,43.25,-2.9667,Europe/Madrid,2012-03-16 18:41:08,2012-03-16 18:34:14
Mozilla/5.0 ,"Windows NT 6.1) AppleWebKit/535.11 (KHTML, like Gecko) Chrome/17.0.963.79 Safari/535.11",facebook.com,nasa.gov,Kuala Lumpur,3.1667,101.699997,Asia/Kuala_Lumpur,2012-03-16 18:41:09,2012-03-16 18:34:14
Mozilla/5.0 ,"Windows NT 6.1) AppleWebKit/535.11 (KHTML, like Gecko) Chrome/17.0.963.79 Safari/535.11",facebook.com,nasa.gov,Nicosia,35.166698,33.366699,Asia/Nicosia,2012-03-16 18:41:08,2012-03-16 18:34:14
Mozilla/5.0 ,"Windows NT 5.1) AppleWebKit/535.11 (KHTML, like Gecko) Chrome/17.0.963.79 Safari/535.11",plus.url.google.com,nasa.gov,Huddersfield,53.650002,-1.7833,Europe/London,2012-03-16 18:41:11,2012-03-16 18:34:14
Mozilla/5.0 ,"Windows NT 5.1) AppleWebKit/535.11 (KHTML, like Gecko) Chrome/17.0.963.79 Safari/535.11",facebook.com,nasa.gov,Fairport,43.100498,-77.426003,America/New_York,2012-03-16 18:41:11,2012-03-16 18:34:14
Mozilla/5.0 ,Macintosh,t.co,nasa.gov,Knoxville,35.972401,-83.959503,America/Chicago,2012-03-16 18:41:15,2012-03-15 15:26:40
Mozilla/5.0 ,Windows NT 6.1,facebook.com,tricare.mil,Saint Louis,38.6143,-90.444397,America/Chicago,2012-03-16 18:41:21,2012-02-26 00:57:09
Mozilla/5.0 ,Windows NT 6.1,facebook.com,nasa.gov,Rome,41.900002,12.4833,Europe/Rome,2012-03-16 18:41:20,2012-03-16 18:34:14
Mozilla/4.0 ,Windows NT 6.1,aashtojournal.org,senate.gov,Washington,38.909698,-77.023102,America/New_York,2012-03-16 18:41:25,2012-03-15 23:18:05
Mozilla/5.0 ,Windows NT 5.1,facebook.com,nasa.gov,Sliema,35.912498,14.5019,Europe/Malta,2012-03-16 18:41:28,2012-03-16 18:34:14
Mozilla/5.0 ,Linux,m.facebook.com,nasa.gov,Woodbridge,38.625702,-77.266502,America/New_York,2012-03-16 18:41:28,2012-03-16 18:34:14
Mozilla/5.0 ,"Windows NT 6.1) AppleWebKit/535.11 (KHTML, like Gecko) Chrome/17.0.963.79 Safari/535.11",t.co,nature.nps.gov,Grand Rapids,42.977699,-85.710999,America/New_York,2012-03-16 18:41:27,2012-03-16 18:17:13
Mozilla/4.0 ,Windows NT 6.1,t.co,whitehouse.gov,Chula Vista,32.636101,-117.0532,America/Los_Angeles,2012-03-16 18:41:31,2012-03-16 18:01:19
Mozilla/5.0 ,"Windows NT 5.1) AppleWebKit/535.11 (KHTML, like Gecko) Chrome/17.0.963.79 Safari/535.11",t.co,apod.nasa.gov,Curitiba,-25.4167,-49.25,America/Sao_Paulo,2012-03-16 18:41:32,2012-03-16 18:37:48
Mozilla/5.0 ,iPhone,lalaf.com,usno.navy.mil,Central District,22.2833,114.150002,Asia/Hong_Kong,2012-03-16 18:41:32,2011-09-29 17:40:39
Mozilla/5.0 ,iPhone,lalaf.com,ssd.noaa.gov,Central District,22.2833,114.150002,Asia/Hong_Kong,2012-03-16 18:41:32,2011-09-29 17:40:30
Mozilla/5.0 ,Windows NT 6.1,t.co,cbo.gov,Cambridge,42.3741,-71.107201,America/New_York,2012-03-16 18:41:36,2012-03-16 14:41:30
Mozilla/5.0 ,Windows NT 6.1,facebook.com,nasa.gov,Birmingham,52.466702,-1.9167,Europe/London,2012-03-16 18:41:37,2012-03-16 18:08:12
Mozilla/5.0 ,Windows NT 6.1,facebook.com,nasa.gov,Lisboa,38.716702,-9.1333,Europe/Lisbon,2012-03-16 18:41:38,2012-03-16 14:30:47
Mozilla/5.0 ,"Windows NT 6.0) AppleWebKit/535.11 (KHTML, like Gecko) Chrome/17.0.963.79 Safari/535.11",facebook.com,nasa.gov,Lambersart,50.650002,3.0333,Europe/Paris,2012-03-16 18:41:38,2012-03-16 18:34:14
Mozilla/5.0 ,Windows NT 6.1,facebook.com,nasa.gov,Bodmin,50.4664,-4.7256,Europe/London,2012-03-16 18:41:40,2012-03-16 18:34:14
Mozilla/5.0 ,Macintosh,facebook.com,nasa.gov,Herning,56.133301,8.9833,Europe/Copenhagen,2012-03-16 18:41:39,2012-03-16 18:34:14
Mozilla/5.0 ,"Windows NT 5.1) AppleWebKit/535.11 (KHTML, like Gecko) Chrome/17.0.963.56 Safari/535.11 CoolNovo/2.0.1.40",facebook.com,nasa.gov,Piombino,42.916698,10.5333,Europe/Rome,2012-03-16 18:41:41,2012-03-16 18:34:14
Mozilla/5.0 ,"Windows NT 6.1) AppleWebKit/535.11 (KHTML, like Gecko) Chrome/17.0.963.78 Safari/535.11",facebook.com,nasa.gov,Rome,41.900002,12.4833,Europe/Rome,2012-03-16 18:41:43,2012-03-16 18:34:14
Mozilla/5.0 ,Windows NT 6.1,facebook.com,nasa.gov,Columbus,40.028999,-83.080902,America/New_York,2012-03-16 18:41:44,2012-03-16 13:50:29
Mozilla/5.0 ,Macintosh,t.co,nasa.gov,Mesquite,32.7673,-96.624702,America/Chicago,2012-03-16 18:41:44,2012-03-16 18:34:14
Mozilla/4.0 ,Windows NT 6.1,stocktwits.com,federalreserve.gov,Farmington,41.725201,-72.829498,America/New_York,2012-03-16 18:41:45,2012-03-16 10:20:47
Mozilla/4.0 ,Windows NT 6.1,facebook.com,nasa.gov,Limeil-brnnes,48.733299,2.4833,Europe/Paris,2012-03-16 18:41:45,2012-03-16 18:34:14
NokiaC3-00/5.0 ,"Macintosh) Profile/MIDP-2.1 Configuration/CLDC-1.1 Mozilla/5.0 AppleWebKit/420+ (KHTML, like Gecko) Safari/420+",t.co,nasa.gov,Durango,24.0333,-104.666702,America/Mazatlan,2012-03-16 18:41:53,2012-03-16 14:30:47
Mozilla/5.0 ,"Windows NT 6.1) AppleWebKit/535.11 (KHTML, like Gecko) Chrome/17.0.963.79 Safari/535.11",facebook.com,nasa.gov,Dublin,53.333099,-6.2489,Europe/Dublin,2012-03-16 18:41:55,2012-03-16 18:34:14
Mozilla/5.0 ,"Windows NT 5.1) AppleWebKit/535.11 (KHTML, like Gecko) Chrome/17.0.963.78 Safari/535.11",forum2.hkgolden.com,usno.navy.mil,A Po Long,22.2833,114.0,Asia/Hong_Kong,2012-03-16 18:41:57,2011-09-29 17:40:39
Mozilla/5.0 ,"Windows NT 5.1) AppleWebKit/535.11 (KHTML, like Gecko) Chrome/17.0.963.78 Safari/535.11",forum2.hkgolden.com,ssd.noaa.gov,A Po Long,22.2833,114.0,Asia/Hong_Kong,2012-03-16 18:41:57,2011-09-29 17:40:30
Mozilla/5.0 ,Windows NT 6.1,facebook.com,nasa.gov,Jersey City,40.692501,-74.070396,America/New_York,2012-03-16 18:42:03,2012-03-16 18:34:14
Mozilla/5.0 ,Windows NT 6.1,facebook.com,nasa.gov,Li,50.633301,5.5667,Europe/Brussels,2012-03-16 18:42:04,2012-03-16 18:34:14
Mozilla/5.0 ,Windows NT 6.1,facebook.com,nasa.gov,Tholen,51.533298,4.2167,Europe/Amsterdam,2012-03-16 18:42:06,2012-03-16 18:34:14
Mozilla/5.0 ,Windows NT 5.1,facebook.com,nasa.gov,Woodbridge,38.678001,-77.319702,America/New_York,2012-03-16 18:42:08,2012-03-16 13:50:29
Mozilla/5.0 ,Windows NT 6.1,facebook.com,nasa.gov,Burke,38.785099,-77.286598,America/New_York,2012-03-16 18:42:11,2012-03-16 18:34:14
Mozilla/5.0 ,iPhone,twitter.com,whitehouse.gov,Ruther Glen,37.955002,-77.437202,America/New_York,2012-03-16 18:42:12,2012-03-15 19:47:36
Mozilla/5.0 ,Windows NT 6.1,facebook.com,nasa.gov,Stockholm,59.333302,18.049999,Europe/Stockholm,2012-03-16 18:42:13,2012-03-16 18:34:14
Mozilla/5.0 ,Windows NT 6.1,t.co,nasa.gov,Hartland,43.574299,-72.408096,America/New_York,2012-03-16 18:42:14,2012-03-14 18:23:49
Mozilla/5.0 ,"Windows NT 6.1) AppleWebKit/535.11 (KHTML, like Gecko) Chrome/17.0.963.79 Safari/535.11",facebook.com,nasa.gov,Belo Horizonte,-19.9167,-43.9333,America/Sao_Paulo,2012-03-16 18:42:15,2012-03-16 18:34:14
Mozilla/5.0 ,Windows NT 6.1,t.co,radar.weather.gov,Larchmont,40.933399,-73.756302,America/New_York,2012-03-16 18:42:16,2009-07-07 13:59:00
Mozilla/4.0 ,Windows NT 6.1,shrewsbury-ma.gov,shrewsbury-ma.gov,Shrewsbury,42.286499,-71.714699,America/New_York,2012-03-16 18:42:16,2010-05-12 13:55:06
Mozilla/4.0 ,Windows NT 6.1,shrewsbury-ma.gov,shrewsbury-ma.gov,Shrewsbury,42.286499,-71.714699,America/New_York,2012-03-16 18:42:16,2010-05-12 13:53:31
Mozilla/5.0 ,iPad,m.facebook.com,nasa.gov,Melaka,2.1969,102.2481,Asia/Kuala_Lumpur,2012-03-16 18:42:17,2012-03-16 18:34:14
Mozilla/5.0 ,Windows NT 5.1,t.co,nasa.gov,Huntsville,34.719299,-86.560402,America/Chicago,2012-03-16 18:42:19,2012-03-16 18:34:14
Mozilla/5.0 ,"Windows NT 6.1) AppleWebKit/535.11 (KHTML, like Gecko) Chrome/17.0.963.79 Safari/535.11",facebook.com,nasa.gov,Si Sa Ket,15.1167,104.333298,Asia/Bangkok,2012-03-16 18:42:21,2012-03-16 18:34:14
Mozilla/5.0 ,Macintosh,t.co,nasa.gov,Oldenburg,53.166698,8.2,Europe/Berlin,2012-03-16 18:42:21,2012-03-16 14:30:47
Mozilla/5.0 ,Windows NT 6.1,36ohk6dgmcd1n-c.c.yom.mail.yahoo.net,srh.noaa.gov,Albuquerque,35.102501,-106.611702,America/Denver,2012-03-16 18:42:22,2012-03-06 04:15:07
Mozilla/5.0 ,"Windows NT 6.1) AppleWebKit/535.11 (KHTML, like Gecko) Chrome/17.0.963.79 Safari/535.11",facebook.com,nasa.gov,Crespellano,44.516701,11.1167,Europe/Rome,2012-03-16 18:42:22,2012-03-16 18:34:14
Mozilla/5.0 ,Macintosh,facebook.com,jpl.nasa.gov,Yalaha,28.734699,-81.819702,America/New_York,2012-03-16 18:42:23,2012-03-14 18:48:34
Mozilla/5.0 ,"Windows NT 5.1) AppleWebKit/535.11 (KHTML, like Gecko) Chrome/17.0.963.79 Safari/535.11",t.co,nasa.gov,Toronto,43.666698,-79.416702,America/Rainy_River,2012-03-16 18:42:28,2012-03-16 18:34:14
Mozilla/4.0 ,Windows NT 6.1,aashtojournal.org,thomas.loc.gov,Washington,38.909698,-77.023102,America/New_York,2012-03-16 18:42:29,2011-11-09 17:20:36
Mozilla/4.0 ,Windows NT 6.1,aashtojournal.org,dot.ca.gov,Berkeley,37.878101,-122.271004,America/Los_Angeles,2012-03-16 18:42:31,2012-03-14 20:42:43
Mozilla/5.0 ,Macintosh,t.co,nasa.gov,Cincinnati,39.169899,-84.485901,America/New_York,2012-03-16 18:42:31,2012-03-16 14:30:47
Mozilla/5.0 ,Windows NT 6.1,srh.noaa.gov,srh.noaa.gov,Albuquerque,35.102501,-106.611702,America/Denver,2012-03-16 18:42:32,2012-03-16 09:03:06
Mozilla/5.0 ,Windows NT 6.1,facebook.com,nasa.gov,Vernon Rockville,41.836498,-72.463203,America/New_York,2012-03-16 18:42:32,2012-03-16 18:34:14
Mozilla/5.0 ,Macintosh,t.co,nature.nps.gov,Brooklyn,40.702099,-73.942299,America/New_York,2012-03-16 18:42:35,2012-03-16 18:17:13
Mozilla/5.0 ,Windows NT 6.1,facebook.com,nasa.gov,Cracow,50.083302,19.9167,Europe/Warsaw,2012-03-16 18:42:37,2012-03-16 18:34:14
Mozilla/4.0 ,Windows NT 6.1,shrewsbury-ma.gov,shrewsbury-ma.gov,Shrewsbury,42.286499,-71.714699,America/New_York,2012-03-16 18:42:39,2010-05-12 13:53:31
Mozilla/4.0 ,Windows NT 6.1,shrewsbury-ma.gov,shrewsbury-ma.gov,Shrewsbury,42.286499,-71.714699,America/New_York,2012-03-16 18:42:39,2010-05-12 13:55:06
Mozilla/5.0 ,Windows NT 6.1,facebook.com,nasa.gov,Sorrento,40.616699,14.3667,Europe/Rome,2012-03-16 18:42:40,2012-03-16 18:34:14
Mozilla/5.0 ,Windows NT 6.1,facebook.com,nationalmap.gov,Austin,30.4,-97.7528,America/Chicago,2012-03-16 18:42:39,2011-08-24 19:33:44
Mozilla/5.0 ,Windows NT 6.1,facebook.com,nasa.gov,Cracow,50.083302,19.9167,Europe/Warsaw,2012-03-16 18:42:41,2012-03-16 18:34:14
Mozilla/5.0 ,Windows NT 6.1,facebook.com,nasa.gov,Zdunska Wola,51.599998,18.9333,Europe/Warsaw,2012-03-16 18:42:43,2012-03-16 18:34:14
Mozilla/5.0 ,Windows NT 5.1,t.co,cdc.gov,Torrance,33.835201,-118.328903,America/Los_Angeles,2012-03-16 18:42:48,2012-03-09 00:48:20
Mozilla/5.0 ,Macintosh,plus.url.google.com,nasa.gov,Seattle,47.5951,-122.332603,America/Los_Angeles,2012-03-16 18:42:51,2012-03-16 18:34:14
Mozilla/5.0 ,Windows NT 6.1,facebook.com,nasa.gov,Vordorf,52.366699,10.5333,Europe/Berlin,2012-03-16 18:42:53,2012-03-16 18:34:14
Mozilla/5.0 ,iPad,twitter.com,whitehouse.gov,Milan,35.925098,-88.785797,America/Chicago,2012-03-16 18:42:57,2012-03-15 19:47:36
Mozilla/5.0 ,"Windows NT 5.1) AppleWebKit/535.11 (KHTML, like Gecko) Chrome/17.0.963.79 Safari/535.11",facebook.com,nasa.gov,Prague,50.083302,14.4667,Europe/Prague,2012-03-16 18:43:00,2012-03-16 18:34:14
Mozilla/5.0 ,"Windows NT 6.1) AppleWebKit/535.11 (KHTML, like Gecko) Chrome/17.0.963.79 Safari/535.11",t.co,nlm.nih.gov,Barcelona,41.383301,2.1833,Europe/Madrid,2012-03-16 18:43:03,2012-03-16 17:24:01
Mozilla/5.0 ,"Windows NT 6.1) AppleWebKit/535.11 (KHTML, like Gecko) Chrome/17.0.963.79 Safari/535.11",t.co,nasa.gov,Rio De Janeiro,-22.9,-43.233299,America/Sao_Paulo,2012-03-16 18:43:03,2012-03-16 17:20:14
Mozilla/5.0 ,Windows NT 6.1,t.co,fairfaxcounty.gov,Morrisville,40.195702,-74.812698,America/New_York,2012-03-16 18:43:05,2012-03-16 16:50:58
Mozilla/5.0 ,"Windows NT 6.1) AppleWebKit/535.11 (KHTML, like Gecko) Chrome/17.0.963.79 Safari/535.11",facebook.com,nasa.gov,Kiskunhalas,46.4314,19.487499,Europe/Budapest,2012-03-16 18:43:07,2012-03-16 14:30:47
Mozilla/5.0 ,Windows NT 6.1,facebook.com,nasa.gov,Bangkok,13.75,100.516701,Asia/Bangkok,2012-03-16 18:43:07,2012-03-16 18:34:14
Mozilla/5.0 ,Windows NT 6.1,facebook.com,nasa.gov,Gliwice,50.283298,18.6667,Europe/Warsaw,2012-03-16 18:43:16,2012-03-16 18:34:14
Mozilla/5.0 ,"Windows NT 6.0) AppleWebKit/535.11 (KHTML, like Gecko) Chrome/17.0.963.79 Safari/535.11",t.co,cdc.gov,New Iberia,29.957899,-91.872101,America/Chicago,2012-03-16 18:43:16,2012-03-16 18:13:38
Mozilla/5.0 ,Windows NT 5.1,t.co,cbo.gov,Cumming,34.188202,-84.159203,America/New_York,2012-03-16 18:43:17,2012-03-16 14:41:30
Mozilla/4.0 ,Windows NT 6.1,t.co,earthobservatory.nasa.gov,Torrevieja,37.983299,-0.6833,Europe/Madrid,2012-03-16 18:43:19,2011-11-11 21:39:53
Mozilla/5.0 ,iPhone,t.co,ncbi.nlm.nih.gov,Tokyo,35.685001,139.751404,Asia/Tokyo,2012-03-16 18:43:17,2012-03-16 14:33:15
Mozilla/5.0 ,Macintosh,facebook.com,nasa.gov,American Fork,40.393002,-111.783798,America/Denver,2012-03-16 18:43:20,2012-03-16 18:34:14
Mozilla/5.0 ,"PLAYSTATION 3 4.11) AppleWebKit/531.22.8 (KHTML, like Gecko)",m.facebook.com,nasa.gov,Stockport,53.400002,-2.15,Europe/London,2012-03-16 18:43:25,2012-03-16 18:34:14
Mozilla/5.0 ,Windows NT 6.1,facebook.com,whitehouse.gov,Grinnell,41.721699,-92.717598,America/Chicago,2012-03-16 18:43:28,2012-03-16 06:06:16
Mozilla/4.0 ,Windows NT 6.1,nationalmap.gov,nationalmap.gov,Ashburn,39.016499,-77.506203,America/New_York,2012-03-16 18:43:29,2011-06-03 16:07:10
Mozilla/5.0 ,Windows NT 6.1,facebook.com,nasa.gov,Jochberg,47.383301,12.4,Europe/Vienna,2012-03-16 18:43:31,2012-03-16 18:08:11
Mozilla/5.0 ,"Windows NT 6.1) AppleWebKit/535.11 (KHTML, like Gecko) Chrome/17.0.963.79 Safari/535.11",plus.url.google.com,nasa.gov,Denver,39.743698,-104.979301,America/Denver,2012-03-16 18:43:32,2012-03-16 18:34:14
Mozilla/5.0 ,Linux,t.co,fbi.gov,Grand Rapids,42.9384,-85.6436,America/New_York,2012-03-16 18:43:35,2012-03-16 18:10:21
Mozilla/5.0 ,Windows NT 6.1,facebook.com,nasa.gov,Tucson,32.2132,-110.887299,America/Phoenix,2012-03-16 18:43:35,2012-03-16 18:34:14
Mozilla/5.0 ,Windows NT 6.1,facebook.com,nasa.gov,Lisbon,38.716702,-9.1333,Europe/Lisbon,2012-03-16 18:43:42,2012-03-16 18:34:14
Mozilla/5.0 ,Linux,t.co,nasa.gov,Abanilla,38.200001,-1.05,Europe/Madrid,2012-03-16 18:43:44,2012-03-13 20:33:30
Mozilla/5.0 ,Windows NT 6.1,t.co,nasa.gov,Saint Paul,44.9487,-93.100197,America/Chicago,2012-03-16 18:43:46,2012-03-16 18:31:05
Mozilla/5.0 ,Macintosh,facebook.com,homeland.house.gov,Ottawa,45.416698,-75.699997,America/Rainy_River,2012-03-16 18:43:47,2012-03-16 18:04:56
Mozilla/5.0 ,Windows NT 6.1,facebook.com,nasa.gov,Nazareth,32.703602,35.295601,Asia/Jerusalem,2012-03-16 18:43:53,2012-03-16 18:34:14
Mozilla/5.0 ,Windows NT 6.1,facebook.com,nasa.gov,Dublin,53.333099,-6.2489,Europe/Dublin,2012-03-16 18:43:54,2012-03-16 18:34:14
Mozilla/5.0 ,Windows NT 6.1,facebook.com,nasa.gov,North Haven,41.3834,-72.862602,America/New_York,2012-03-16 18:43:55,2012-03-16 18:34:14
Mozilla/5.0 ,"Windows NT 6.1) AppleWebKit/535.11 (KHTML, like Gecko) Chrome/17.0.963.79 Safari/535.11",facebook.com,nasa.gov,Karachi,24.866699,67.050003,Asia/Karachi,2012-03-16 18:43:54,2012-03-16 18:34:14
Mozilla/5.0 ,Windows NT 6.1,facebook.com,nasa.gov,Jochberg,47.383301,12.4,Europe/Vienna,2012-03-16 18:43:56,2012-03-16 18:08:12
Mozilla/4.0 ,Windows NT 6.1,srh.noaa.gov,srh.noaa.gov,El Paso,31.815201,-106.424004,America/Chicago,2012-03-16 18:43:59,2012-03-16 09:04:12
Mozilla/5.0 ,Linux,t.co,nasa.gov,Abanilla,38.200001,-1.05,Europe/Madrid,2012-03-16 18:44:00,2012-03-16 14:30:47
Mozilla/4.0 ,Windows NT 6.1,t.co,nasa.gov,Bogot,4.6,-74.083298,America/Bogota,2012-03-16 18:44:02,2012-03-16 14:30:47
Mozilla/5.0 ,Windows NT 6.1,huffingtonpost.com,rules.house.gov,Fishers,39.960999,-85.983704,America/Indianapolis,2012-03-16 18:44:02,2011-12-13 15:20:20
Mozilla/5.0 ,Macintosh,facebook.com,homeland.house.gov,Ottawa,45.416698,-75.699997,America/Rainy_River,2012-03-16 18:44:06,2012-03-16 17:38:31
Mozilla/5.0 ,Windows NT 6.1,facebook.com,navy.com,Garland,32.875599,-96.648201,America/Chicago,2012-03-16 18:44:08,2012-03-08 15:06:55
Mozilla/5.0 ,Windows,t.co,whitehouse.gov,Gatineau,45.483299,-75.650002,America/Montreal,2012-03-16 18:44:09,2012-03-16 18:14:19
Mozilla/5.0 ,"Windows NT 5.1) AppleWebKit/535.11 (KHTML, like Gecko) Chrome/17.0.963.56 Safari/535.11",facebook.com,nasa.gov,Indore,22.7167,75.833298,Asia/Calcutta,2012-03-16 18:44:10,2012-03-16 18:34:14
Mozilla/5.0 ,Windows NT 6.1,t.co,voyager.jpl.nasa.gov,Nacka,59.299999,18.1667,Europe/Stockholm,2012-03-16 18:44:11,2012-03-13 20:29:09
Mozilla/5.0 ,Macintosh,t.co,house.mo.gov,Vienna,48.200001,16.366699,Europe/Vienna,2012-03-16 18:44:13,2012-03-13 01:22:54
Mozilla/5.0 ,Windows NT 6.1,plus.url.google.com,nasa.gov,Salem,40.026699,-111.645203,America/Denver,2012-03-16 18:44:13,2012-03-16 18:34:14
Mozilla/5.0 ,Macintosh,facebook.com,nasa.gov,Corroios,38.633301,-9.15,Europe/Lisbon,2012-03-16 18:44:14,2012-03-16 18:34:14
Mozilla/5.0 ,"Windows NT 6.0) AppleWebKit/535.11 (KHTML, like Gecko) Chrome/17.0.963.79 Safari/535.11",facebook.com,nasa.gov,Leicester,52.633301,-1.1333,Europe/London,2012-03-16 18:44:14,2012-03-16 18:34:14
Mozilla/5.0 ,Windows NT 6.1,facebook.com,nasa.gov,Jochberg,47.383301,12.4,Europe/Vienna,2012-03-16 18:44:14,2012-03-16 18:08:12
Mozilla/5.0 ,Windows NT 6.1,t.co,nasa.gov,Heerenveen,52.950001,5.9333,Europe/Amsterdam,2012-03-16 18:44:14,2012-03-16 14:30:47
Mozilla/5.0 ,iPad,twitter.com,whitehouse.gov,Dallas,32.826599,-96.746696,America/Chicago,2012-03-16 18:44:17,2012-03-16 15:26:24
Mozilla/5.0 ,iPhone,twitter.com,nasa.gov,Pickering,43.866699,-79.033302,America/Rainy_River,2012-03-16 18:44:20,2012-03-16 14:30:47
Mozilla/5.0 ,iPhone,twitter.com,nasa.gov,Manchester,53.5,-2.2167,Europe/London,2012-03-16 18:44:24,2012-03-16 14:30:47
Mozilla/5.0 ,Ubuntu 14.04.6,plus.url.google.com,nasa.gov,Prague,50.083302,14.4667,Europe/Prague,2012-03-16 18:44:26,2012-03-16 18:34:14
Mozilla/5.0 ,Windows NT 6.1,t.co,nasa.gov,Southampton,50.900002,-1.4,Europe/London,2012-03-16 18:44:27,2012-03-16 14:30:47
Mozilla/5.0 ,Windows NT 6.1,facebook.com,nasa.gov,Zeitz,51.049999,12.15,Europe/Berlin,2012-03-16 18:44:30,2012-03-16 18:34:14
Mozilla/5.0 ,Linux,m.facebook.com,nasa.gov,York,39.917099,-76.725601,America/New_York,2012-03-16 18:44:29,2012-03-16 13:50:29
Mozilla/5.0 ,Linux,t.co,nasa.gov,Abanilla,38.200001,-1.05,Europe/Madrid,2012-03-16 18:44:32,2012-03-13 20:33:30
Mozilla/5.0 ,Linux,t.co,nasa.gov,Abanilla,38.200001,-1.05,Europe/Madrid,2012-03-16 18:44:33,2012-03-16 14:30:47
Mozilla/5.0 ,Windows NT 6.0,t.co,saturn.jpl.nasa.gov,Noblesville,40.069801,-85.981697,America/Indianapolis,2012-03-16 18:44:35,2012-03-12 21:31:05
Mozilla/5.0 ,Windows NT 6.1,facebook.com,nasa.gov,Cape Girardeau,37.337002,-89.591103,America/Chicago,2012-03-16 18:44:33,2012-03-16 18:34:14
Mozilla/5.0 ,Windows NT 5.1,barackobama.com,whitehouse.gov,Toronto,43.666698,-79.416702,America/Rainy_River,2012-03-16 18:44:37,2012-03-15 12:23:59
Mozilla/5.0 ,"Windows NT 6.1) AppleWebKit/535.11 (KHTML, like Gecko) Chrome/17.0.963.56 Safari/535.11",facebook.com,nasa.gov,Madrid,40.400002,-3.6833,Europe/Madrid,2012-03-16 18:44:36,2012-03-16 18:34:14
Mozilla/5.0 ,"Windows NT 6.1) AppleWebKit/535.11 (KHTML, like Gecko) Chrome/17.0.963.79 Safari/535.11",facebook.com,lebanon.usembassy.gov,Beirut,33.871899,35.509701,Asia/Beirut,2012-03-16 18:44:38,2012-03-16 13:44:48
Mozilla/5.0 ,Linux,t.co,nasa.gov,Abanilla,38.200001,-1.05,Europe/Madrid,2012-03-16 18:44:38,2012-03-16 14:30:47
Mozilla/4.0 ,Windows NT 6.1,abclocal.go.com,odi.nhtsa.dot.gov,Hartford,41.745399,-72.670303,America/New_York,2012-03-16 18:44:40,2012-02-25 16:07:21
Mozilla/5.0 ,Windows NT 6.0,facebook.com,nasa.gov,Cardiff,51.5,-3.2,Europe/London,2012-03-16 18:44:43,2012-03-16 18:34:14
Mozilla/5.0 ,Windows NT 6.1,facebook.com,nasa.gov,Freystadt,49.2006,11.3294,Europe/Berlin,2012-03-16 18:44:45,2012-03-16 18:34:14
Mozilla/5.0 ,Macintosh,t.co,majorityleader.gov,West New York,40.787899,-74.010201,America/New_York,2012-03-16 18:44:46,2011-07-12 16:51:02
Mozilla/5.0 ,Macintosh,t.co,nasa.gov,New Smyrna Beach,28.9876,-80.960999,America/New_York,2012-03-16 18:44:49,2012-03-16 14:30:47
Mozilla/5.0 ,Windows NT 5.1,t.co,healthfinder.gov,Cuyahoga Falls,41.148201,-81.473602,America/New_York,2012-03-16 18:44:49,2012-03-12 12:32:02
Mozilla/4.0 ,Windows NT 6.1,srh.noaa.gov,srh.noaa.gov,El Paso,31.815201,-106.424004,America/Chicago,2012-03-16 18:44:54,2012-03-16 09:04:12
Mozilla/4.0 ,Windows NT 6.1,facebook.com,uspto.gov,Arlington,38.878201,-77.1054,America/New_York,2012-03-16 18:44:55,2012-03-13 18:25:32
Mozilla/5.0 ,Macintosh,plus.url.google.com,nasa.gov,Winston Salem,36.0536,-80.315399,America/New_York,2012-03-16 18:44:57,2012-03-16 18:34:14
Mozilla/5.0 ,"Windows NT 6.0) AppleWebKit/535.19 (KHTML, like Gecko) Chrome/18.0.1025.100 Safari/535.19",t.co,nasa.gov,Settimo Torinese,45.150002,7.7667,Europe/Rome,2012-03-16 18:44:58,2012-03-16 18:27:29
Mozilla/5.0 ,"Windows NT 6.1) AppleWebKit/535.11 (KHTML, like Gecko) Chrome/17.0.963.79 Safari/535.11",facebook.com,nasa.gov,Kiskunhalas,46.4314,19.487499,Europe/Budapest,2012-03-16 18:45:00,2012-03-16 13:50:29
Mozilla/5.0 ,"Windows NT 5.1) AppleWebKit/535.11 (KHTML, like Gecko) Chrome/17.0.963.79 Safari/535.11",t.co,nasa.gov,Saronno,45.633301,9.0333,Europe/Rome,2012-03-16 18:45:02,2012-03-16 14:30:47
Mozilla/5.0 ,Windows NT 6.1,t.co,nasa.gov,Addlestone,51.366699,-0.4833,Europe/London,2012-03-16 18:45:04,2012-03-15 13:06:42
Mozilla/5.0 ,Windows NT 6.1,facebook.com,nasa.gov,Markgrgen,48.900002,9.0667,Europe/Berlin,2012-03-16 18:45:09,2012-03-16 18:34:14
Mozilla/5.0 ,Windows NT 6.1,t.co,whitehouse.gov,Rockville,39.0807,-77.130203,America/New_York,2012-03-16 18:45:09,2012-03-15 19:47:36
Mozilla/5.0 ,Windows NT 6.1,facebook.com,nasa.gov,Plano,33.034698,-96.8134,America/Chicago,2012-03-16 18:45:10,2012-03-16 18:34:14
Mozilla/4.0 ,Windows NT 6.1,nationalreview.com,hhs.gov,Long Beach,33.7976,-118.161697,America/Los_Angeles,2012-03-16 18:45:16,2012-03-16 16:24:38
Mozilla/5.0 ,Macintosh,barackobama.com,whitehouse.gov,Los Angeles,33.786598,-118.298698,America/Los_Angeles,2012-03-16 18:45:16,2012-03-15 12:23:59
Mozilla/4.0 ,Windows NT 6.1,t.co,energystar.gov,Saint Paul,44.9487,-93.100197,America/Chicago,2012-03-16 18:45:19,2012-03-16 15:57:27
Mozilla/5.0 ,Macintosh,facebook.com,nccam.nih.gov,New Haven,41.3111,-72.924103,America/New_York,2012-03-16 18:45:19,2012-03-16 15:53:20
Mozilla/5.0 ,iPad,twitter.com,nasa.gov,East Sandwich,41.7285,-70.433403,America/New_York,2012-03-16 18:45:23,2012-03-14 18:23:49
Mozilla/4.0 ,Windows NT 6.1,usa.gov,answers.usa.gov,Saint Helens,45.8871,-122.928299,America/Los_Angeles,2012-03-16 18:45:25,2012-01-13 17:50:25
Mozilla/5.0 ,Linux,t.co,nasa.gov,Abanilla,38.200001,-1.05,Europe/Madrid,2012-03-16 18:45:31,2012-03-15 18:08:35
Mozilla/5.0 ,Windows NT 6.1,facebook.com,nasa.gov,Illkirch-graffenstaden,48.533298,7.7167,Europe/Paris,2012-03-16 18:45:31,2012-03-16 18:34:14
Mozilla/5.0 ,Macintosh,facebook.com,nasa.gov,Athens,33.949902,-83.375,America/New_York,2012-03-16 18:45:34,2012-03-16 18:34:14
Mozilla/5.0 ,Windows NT 6.1,facebook.com,nasa.gov,Lahore,31.5497,74.343597,Asia/Karachi,2012-03-16 18:45:35,2012-03-16 18:34:14
Mozilla/5.0 ,Windows NT 6.1,facebook.com,nasa.gov,Wichita,37.6936,-97.4804,America/Chicago,2012-03-16 18:45:37,2012-03-16 18:34:14
Mozilla/5.0 ,Windows NT 5.1,facebook.com,nasa.gov,Deerfield,43.149101,-71.256401,America/New_York,2012-03-16 18:45:38,2012-03-14 18:23:49
Mozilla/5.0 ,Linux,t.co,montgomerycountymd.gov,Takoma Park,38.9827,-77.003998,America/New_York,2012-03-16 18:45:41,2012-03-16 13:43:52
Mozilla/5.0 ,Windows NT 6.1,facebook.com,whitehouse.gov,Chula Vista,32.6087,-116.936501,America/Los_Angeles,2012-03-16 18:45:44,2012-03-15 19:47:36
Mozilla/5.0 ,iPhone,twitter.com,whitehouse.gov,Dallas,32.809799,-96.799301,America/Chicago,2012-03-16 18:45:44,2012-03-15 12:23:59
Mozilla/5.0 ,Windows NT 6.1,roosterteeth.com,irs.gov,Ludwigshafen,49.481098,8.4353,Europe/Berlin,2012-03-16 18:45:43,2012-03-14 16:24:17
Mozilla/5.0 ,Windows NT 6.1,t.co,kingcounty.gov,Seattle,47.5951,-122.332603,America/Los_Angeles,2012-03-16 18:45:44,2012-03-02 23:34:57
Mozilla/5.0 ,Windows NT 5.1,roosterteeth.com,irs.gov,Reading,40.316002,-76.034599,America/New_York,2012-03-16 18:45:45,2012-03-14 16:24:17
Mozilla/5.0 ,Windows NT 6.1,hootsuite.com,kingcounty.gov,Snohomish,47.896,-122.049103,America/Los_Angeles,2012-03-16 18:45:45,2012-03-02 23:34:57
Mozilla/5.0 ,Windows NT 6.1,t.co,kingcounty.gov,Seattle,47.5951,-122.332603,America/Los_Angeles,2012-03-16 18:45:47,2012-03-02 23:34:57
Mozilla/5.0 ,Macintosh,t.co,whitehouse.gov,Santiago,-33.450001,-70.666702,Chile/Continental,2012-03-16 18:45:48,2012-03-15 00:32:13
Mozilla/5.0 ,Windows NT 6.1,skihood.com,forecast.weather.gov,Oregon City,45.3218,-122.523102,America/Los_Angeles,2012-03-16 18:45:48,2011-02-13 07:49:47
Mozilla/5.0 ,Windows NT 6.1,facebook.com,healthfinder.gov,Charlottesville,38.032902,-78.513702,America/New_York,2012-03-16 18:45:50,2012-03-09 21:34:17
Mozilla/5.0 ,Windows NT 6.1,addins.wrex.com,crh.noaa.gov,Rockford,42.271099,-89.059303,America/Chicago,2012-03-16 18:45:55,2012-03-16 16:27:27
Mozilla/5.0 ,Windows NT 6.0,plus.url.google.com,nasa.gov,Fredericton,45.950001,-66.633301,America/Halifax,2012-03-16 18:46:01,2012-03-16 18:34:14
Mozilla/5.0 ,Macintosh,plus.url.google.com,nasa.gov,Vancouver,49.25,-123.133301,America/Vancouver,2012-03-16 18:46:08,2012-03-16 18:34:14
Mozilla/5.0 ,"Windows NT 6.0) AppleWebKit/535.11 (KHTML, like Gecko) Chrome/17.0.963.79 Safari/535.11",facebook.com,nasa.gov,Virginia,47.593601,-92.495697,America/Chicago,2012-03-16 18:46:17,2012-03-16 18:34:14
Mozilla/5.0 ,Windows NT 6.1,facebook.com,nasa.gov,Madrid,40.400002,-3.6833,Europe/Madrid,2012-03-16 18:46:18,2012-03-16 18:34:14
Mozilla/5.0 ,Windows NT 6.1,facebook.com,nasa.gov,Terre Haute,39.471001,-87.411102,America/Indianapolis,2012-03-16 18:46:24,2012-03-16 18:34:14
Mozilla/5.0 ,Windows NT 6.1,t.co,cbo.gov,Rolling Meadows,42.067799,-88.018501,America/Chicago,2012-03-16 18:46:25,2012-03-16 14:41:30
Mozilla/5.0 ,"Windows NT 5.1) AppleWebKit/535.11 (KHTML, like Gecko) Chrome/17.0.963.79 Safari/535.11",t.co,whitehouse.gov,Washington,38.909698,-77.023102,America/New_York,2012-03-16 18:46:28,2012-02-14 00:17:20
Mozilla/5.0 ,Windows NT 6.1,facebook.com,nasa.gov,Bhilai,21.2167,81.433296,Asia/Calcutta,2012-03-16 18:46:27,2012-03-16 18:34:14
Mozilla/5.0 ,Windows NT 6.1,t.co,nasa.gov,Lule,65.583298,22.15,Europe/Stockholm,2012-03-16 18:46:30,2012-03-16 14:30:47
Mozilla/5.0 ,Ubuntu 14.04.6,today.lbl.gov,jgi.doe.gov,Albany,37.8895,-122.294701,America/Los_Angeles,2012-03-16 18:46:33,2011-09-21 20:11:35
Mozilla/5.0 ,"Windows NT 6.0) AppleWebKit/535.11 (KHTML, like Gecko) Chrome/17.0.963.79 Safari/535.11",groupon.com,nps.gov,Windsor,40.472401,-104.893898,America/Denver,2012-03-16 18:46:37,2012-03-11 21:50:17
Mozilla/5.0 ,Macintosh,plus.url.google.com,nasa.gov,Poughkeepsie,41.676998,-73.8619,America/New_York,2012-03-16 18:46:36,2012-03-16 18:34:14
Mozilla/5.0 ,"Windows NT 5.1) AppleWebKit/535.11 (KHTML, like Gecko) Chrome/17.0.963.79 Safari/535.11",facebook.com,nasa.gov,Mosina,52.25,16.85,Europe/Warsaw,2012-03-16 18:46:39,2012-03-14 18:23:49
Mozilla/5.0 ,Macintosh,t.co,choosemyplate.gov,Nashville,36.133301,-86.803703,America/Chicago,2012-03-16 18:46:41,2012-03-12 18:35:34
Mozilla/4.0 ,Windows NT 6.1,barackobama.com,whitehouse.gov,Washington,38.909698,-77.023102,America/New_York,2012-03-16 18:46:44,2012-03-15 12:23:59
Mozilla/5.0 ,Windows NT 6.0,facebook.com,nasa.gov,Szczecinek,53.716702,16.700001,Europe/Warsaw,2012-03-16 18:46:50,2012-03-16 18:34:14
Mozilla/5.0 ,Windows NT 5.1,today.lbl.gov,jgi.doe.gov,Berkeley,37.866798,-122.253601,America/Los_Angeles,2012-03-16 18:46:51,2011-09-21 20:11:35
Mozilla/5.0 ,Windows NT 6.1,t.co,tsa.gov,Breda,51.5667,4.8,Europe/Amsterdam,2012-03-16 18:46:51,2012-03-16 03:06:17
Mozilla/5.0 ,"Windows NT 5.1) AppleWebKit/535.11 (KHTML, like Gecko) Chrome/17.0.963.79 Safari/535.11",t.co,nasa.gov,Saronno,45.633301,9.0333,Europe/Rome,2012-03-16 18:46:56,2012-03-15 18:08:35
Mozilla/5.0 ,Windows NT 5.1,t.co,nasa.gov,Calgary,51.083302,-114.083298,America/Edmonton,2012-03-16 18:46:54,2012-03-16 14:30:47
Mozilla/5.0 ,Windows NT 5.1,t.co,healthfinder.gov,Cuyahoga Falls,41.148201,-81.473602,America/New_York,2012-03-16 18:46:58,2012-03-12 12:32:02
Mozilla/5.0 ,Windows NT 6.1,t.co,cms3.tucsonaz.gov,Yuma,32.688801,-114.665703,America/Phoenix,2012-03-16 18:47:00,2012-03-16 17:00:13
Mozilla/4.0 ,Windows NT 6.1,bl129w.blu129.mail.live.com,forecast.weather.gov,Independence,44.831402,-123.2034,America/Los_Angeles,2012-03-16 18:47:04,2011-02-13 07:49:47
Mozilla/5.0 ,Windows NT 6.1,plus.url.google.com,nasa.gov,Phoenix,33.449902,-112.071198,America/Phoenix,2012-03-16 18:47:05,2012-03-16 18:34:14
Mozilla/5.0 ,Windows NT 6.1,t.co,kingcounty.gov,Olympia,47.0387,-122.891998,America/Los_Angeles,2012-03-16 18:47:04,2012-03-02 23:34:57
Mozilla/5.0 ,Windows NT 6.1,facebook.com,usajobs.gov,Mesquite,32.7673,-96.624702,America/Chicago,2012-03-16 18:47:10,2012-03-14 20:15:15
Mozilla/4.0 ,Windows NT 6.1,nix.nasa.gov,ntrs.nasa.gov,Poughkeepsie,41.690399,-73.891899,America/New_York,2012-03-16 18:47:16,2012-03-16 11:14:25
Mozilla/5.0 ,Windows NT 5.0,facebook.com,nasa.gov,Compton,33.879902,-118.213303,America/Los_Angeles,2012-03-16 18:47:16,2012-03-16 18:34:14
Mozilla/5.0 ,iPhone,twitter.com,crh.noaa.gov,Warren,42.5144,-83.0159,America/New_York,2012-03-16 18:47:14,2012-03-13 20:03:14
Mozilla/4.0 ,Windows NT 6.1,togetter.com,navy.mil,Nogata,33.733299,130.733307,Asia/Tokyo,2012-03-16 18:47:16,2010-07-30 22:34:17
Mozilla/5.0 ,Macintosh,t.co,kingcounty.gov,Seattle,47.576,-122.399498,America/Los_Angeles,2012-03-16 18:47:17,2012-03-02 23:34:57
Mozilla/5.0 ,Macintosh,stocktwits.com,sec.gov,Chattanooga,35.0481,-85.283302,America/Chicago,2012-03-16 18:47:18,2012-02-14 20:36:43
Mozilla/5.0 ,"Windows NT 5.1) AppleWebKit/535.11 (KHTML, like Gecko) Chrome/17.0.963.79 Safari/535.11",nysenate.gov,nysenate.gov,New York,40.761902,-73.976303,America/New_York,2012-03-16 18:47:20,2012-03-15 19:06:03
Mozilla/5.0 ,Windows NT 6.1,worldcommunitygrid.org,navy.mil,Lees Summit,38.915901,-94.364403,America/Chicago,2012-03-16 18:47:21,2011-05-07 07:23:39
Mozilla/5.0 ,Macintosh,t.co,usda.gov,Pinole,37.992699,-122.2761,America/Los_Angeles,2012-03-16 18:47:22,2012-03-15 19:26:16
Mozilla/4.0 ,Windows NT 6.1,politico.com,cbo.gov,Hartford,41.769001,-72.683502,America/New_York,2012-03-16 18:47:26,2012-03-15 14:52:27
Mozilla/5.0 ,iPhone,twitter.com,nasa.gov,Ieper,50.849998,2.8833,Europe/Brussels,2012-03-16 18:47:25,2012-03-16 14:30:47
Mozilla/5.0 ,Windows NT 6.1,roosterteeth.com,irs.gov,Colorado Springs,38.8326,-104.740501,America/Denver,2012-03-16 18:47:27,2012-03-14 16:24:17
Mozilla/5.0 ,Windows NT 6.1,facebook.com,nasa.gov,Bratislava,48.150002,17.116699,Europe/Bratislava,2012-03-16 18:47:25,2012-03-16 18:34:14
Mozilla/5.0 ,BlackBerry,t.co,mpdc.dc.gov,Lebanon,40.641998,-74.82,America/New_York,2012-03-16 18:47:30,2011-09-17 12:16:04
Mozilla/5.0 ,Macintosh,shrewsbury-ma.gov,shrewsbury-ma.gov,Shrewsbury,42.286499,-71.714699,America/New_York,2012-03-16 18:47:36,2010-05-12 13:55:06
Mozilla/5.0 ,Macintosh,shrewsbury-ma.gov,shrewsbury-ma.gov,Shrewsbury,42.286499,-71.714699,America/New_York,2012-03-16 18:47:36,2010-05-12 13:53:31
Mozilla/5.0 ,iPhone,twitter.com,kingcounty.gov,Philadelphia,39.951401,-75.158203,America/New_York,2012-03-16 18:47:36,2012-03-02 23:34:57
Mozilla/5.0 ,"Windows NT 6.1) AppleWebKit/535.11 (KHTML, like Gecko) Chrome/17.0.963.79 Safari/535.11",t.co,apod.nasa.gov,Natal,-5.7833,-35.216702,America/Recife,2012-03-16 18:47:37,2012-03-16 18:37:48
Mozilla/5.0 ,"Windows NT 5.1) AppleWebKit/535.2 (KHTML, like Gecko) Chrome/15.0.874.106 Safari/535.2",t.co,michigan.gov,Waterford,42.6884,-83.386497,America/New_York,2012-03-16 18:47:38,2012-03-16 12:31:26
Mozilla/4.0 ,Windows NT 6.1,aashtojournal.org,hdl.loc.gov,Ames,42.065701,-93.692802,America/Chicago,2012-03-16 18:47:39,2012-03-09 17:05:29
Mozilla/5.0 ,Windows NT 6.0,twitter.com,travel.state.gov,Cairo,30.049999,31.25,Africa/Cairo,2012-03-16 18:47:39,2009-08-06 20:30:23
Mozilla/5.0 ,"Windows NT 6.1) AppleWebKit/535.11 (KHTML, like Gecko) Chrome/17.0.963.79 Safari/535.11",facebook.com,nasa.gov,Gaziantep,37.059399,37.3825,Asia/Istanbul,2012-03-16 18:47:41,2012-03-16 18:34:14
Mozilla/4.0 ,Windows NT 6.1,rurdev.usda.gov,grants.gov,Washington,38.909698,-77.023102,America/New_York,2012-03-16 18:47:40,2012-03-08 14:55:39
Mozilla/4.0 ,Windows NT 6.1,t.co,nasa.gov,Boca Raton,26.373899,-80.146797,America/New_York,2012-03-16 18:47:40,2012-03-16 14:30:47
Mozilla/5.0 ,Windows NT 6.1,t.co,whitehouse.gov,Bristol,51.450001,-2.5833,Europe/London,2012-03-16 18:47:40,2012-03-14 15:37:26
Mozilla/5.0 ,Windows NT 6.1,becomeagamedesigner.info,bls.gov,Los Angeles,34.041599,-118.298798,America/Los_Angeles,2012-03-16 18:47:45,2010-02-03 21:13:38
Mozilla/5.0 ,"Windows NT 6.0) AppleWebKit/535.11 (KHTML, like Gecko) Chrome/17.0.963.79 Safari/535.11",facebook.com,nasa.gov,Elizabethtown,37.715302,-85.856499,America/New_York,2012-03-16 18:47:45,2012-03-16 18:34:14
Mozilla/4.0 ,Windows NT 6.1,togetter.com,navy.mil,Nogata,33.733299,130.733307,Asia/Tokyo,2012-03-16 18:47:46,2010-08-02 03:34:55
Mozilla/5.0 ,Macintosh,t.co,nimh.nih.gov,Spring Hill,35.7174,-86.892601,America/Chicago,2012-03-16 18:47:47,2012-03-14 20:21:18
Mozilla/4.0 ,Windows NT 6.1,fightbac.org,cdc.gov,East Orange,40.763901,-74.212601,America/New_York,2012-03-16 18:47:48,2010-12-15 14:40:29
Mozilla/5.0 ,Windows NT 6.1,facebook.com,nasa.gov,Vordorf,52.366699,10.5333,Europe/Berlin,2012-03-16 18:47:50,2012-03-16 18:34:14
Mozilla/5.0 ,Windows NT 6.1,facebook.com,nasa.gov,Antalya,36.912498,30.689699,Asia/Istanbul,2012-03-16 18:47:57,2012-03-16 14:30:47
Mozilla/5.0 ,"Windows NT 6.0) AppleWebKit/535.11 (KHTML, like Gecko) Chrome/17.0.963.79 Safari/535.11",facebook.com,nasa.gov,London,51.500198,-0.1262,Europe/London,2012-03-16 18:47:56,2012-03-16 18:34:14
Mozilla/5.0 ,"Windows NT 6.1) AppleWebKit/535.11 (KHTML, like Gecko) Chrome/17.0.963.79 Safari/535.11",t.co,recoverymonth.gov,Chicago,41.8675,-87.6744,America/Chicago,2012-03-16 18:48:01,2012-03-07 14:07:11
Mozilla/5.0 ,Windows NT 6.1,t.co,nasa.gov,Montreal,45.5,-73.583298,America/Montreal,2012-03-16 18:48:01,2012-03-15 13:06:42
Mozilla/4.0 ,Windows NT 6.1,sec.gov,publications.usa.gov,San Diego,32.797699,-117.132202,America/Los_Angeles,2012-03-16 18:48:06,2011-09-10 02:58:06
Mozilla/5.0 ,Windows NT 6.1,facebook.com,nasa.gov,Istanbul,41.0186,28.964701,Asia/Istanbul,2012-03-16 18:48:08,2012-03-16 18:34:14
Mozilla/5.0 ,"Windows NT 6.1) AppleWebKit/535.11 (KHTML, like Gecko) Chrome/17.0.963.79 Safari/535.11",facebook.com,nasa.gov,Bangkok,13.75,100.516701,Asia/Bangkok,2012-03-16 18:48:09,2012-03-16 18:34:14
Mozilla/5.0 ,Windows NT 6.0,facebook.com,nasa.gov,Fredericksburg,38.302299,-77.484703,America/New_York,2012-03-16 18:48:10,2012-03-16 18:34:14
Mozilla/5.0 ,iPad,twitter.com,michigan.gov,Traverse City,44.795101,-85.649803,America/New_York,2012-03-16 18:48:09,2012-03-16 12:31:26
Mozilla/4.0 ,Windows NT 6.1,togetter.com,navy.mil,Nogata,33.733299,130.733307,Asia/Tokyo,2012-03-16 18:48:15,2010-08-02 03:36:09
Mozilla/5.0 ,Windows NT 6.0,t.co,nasa.gov,Mississauga,43.150002,-79.5,America/Rainy_River,2012-03-16 18:48:18,2012-03-16 14:30:47
Mozilla/4.0 ,Windows NT 6.1,togetter.com,navy.mil,Nogata,33.733299,130.733307,Asia/Tokyo,2012-03-16 18:48:36,2010-08-02 03:37:42
Mozilla/5.0 ,Ubuntu 14.04.6,plus.url.google.com,nasa.gov,Santos,-23.950001,-46.333302,America/Sao_Paulo,2012-03-16 18:48:37,2012-03-16 18:34:14
Mozilla/5.0 ,Windows NT 5.1,t.co,ankenyiowa.gov,Columbus,39.996799,-82.988197,America/New_York,2012-03-16 18:48:43,2012-03-16 18:26:03
Mozilla/5.0 ,iPhone,twitter.com,nasa.gov,Melville,40.785,-73.406197,America/New_York,2012-03-16 18:48:45,2012-03-14 18:23:49
Mozilla/5.0 ,Windows NT 6.1,facebook.com,nasa.gov,Moscow,55.752201,37.615601,Europe/Moscow,2012-03-16 18:48:46,2012-03-16 18:34:14
Mozilla/5.0 ,Windows NT 6.1,facebook.com,nasa.gov,Upper Marlboro,38.835701,-76.773804,America/New_York,2012-03-16 18:48:47,2012-03-16 18:34:14
Mozilla/5.0 ,Windows NT 5.1,t.co,ncbi.nlm.nih.gov,Burnaby,49.25,-122.949997,America/Vancouver,2012-03-16 18:48:48,2011-06-21 18:03:35
Mozilla/5.0 ,Macintosh,t.co,apod.nasa.gov,SCaetano Do Sul,-23.6,-46.5667,America/Sao_Paulo,2012-03-16 18:48:50,2012-03-16 18:37:48
Mozilla/5.0 ,iPhone,twitter.com,fda.gov,Cleveland,30.365101,-95.067398,America/Chicago,2012-03-16 18:48:57,2012-03-16 16:45:02
Mozilla/5.0 ,iPhone,twitter.com,nces.ed.gov,Syracuse,43.051399,-76.149498,America/New_York,2012-03-16 18:48:58,2010-12-01 14:50:38
Mozilla/5.0 ,"Windows NT 5.1) AppleWebKit/535.11 (KHTML, like Gecko) Chrome/17.0.963.79 Safari/535.11",facebook.com,nasa.gov,Surrey,49.136398,-122.821297,America/Vancouver,2012-03-16 18:48:59,2012-03-16 18:34:14
Mozilla/5.0 ,Windows NT 6.1,facebook.com,drugabuse.gov,Denville,40.884102,-74.486298,America/New_York,2012-03-16 18:49:01,2012-01-19 11:20:33
Mozilla/4.0 ,Windows NT 6.1,togetter.com,navy.mil,Nogata,33.733299,130.733307,Asia/Tokyo,2012-03-16 18:49:01,2010-01-27 09:34:37
Mozilla/5.0 ,Macintosh,t.co,ed.gov,West Palm Beach,26.719999,-80.070198,America/New_York,2012-03-16 18:49:02,2012-03-16 12:37:30
Mozilla/5.0 ,Macintosh,hootsuite.com,kingcounty.gov,Federal Way,47.305801,-122.346001,America/Los_Angeles,2012-03-16 18:49:01,2012-03-02 23:34:57
Mozilla/5.0 ,iPhone,m.facebook.com,nasa.gov,New Haven,41.3111,-72.924103,America/New_York,2012-03-16 18:49:05,2012-03-16 18:34:14
Mozilla/4.0 ,Windows NT 6.1,facebook.com,whitehouse.gov,Los Angeles,34.041599,-118.298798,America/Los_Angeles,2012-03-16 18:49:04,2012-03-15 15:11:58
Mozilla/5.0 ,iPhone,twitter.com,nasa.gov,Wyoming,42.8988,-85.705902,America/New_York,2012-03-16 18:49:07,2012-03-16 13:29:58
Mozilla/5.0 ,Windows NT 6.1,facebook.com,nasa.gov,Fitchburg,42.590801,-71.805496,America/New_York,2012-03-16 18:49:08,2012-03-16 18:34:14
Mozilla/4.0 ,Windows NT 6.1,t.co,agriculture.house.gov,Raymond,39.3144,-89.613503,America/Chicago,2012-03-16 18:49:09,2012-03-16 18:22:07
Mozilla/5.0 ,Macintosh,t.co,fda.gov,Richardson,32.972198,-96.737602,America/Chicago,2012-03-16 18:49:10,2012-03-16 16:45:02
Mozilla/5.0 ,Windows NT 6.1,facebook.com,nasa.gov,Stafford,38.433601,-77.388702,America/New_York,2012-03-16 18:49:13,2012-03-16 18:34:14
Mozilla/5.0 ,Macintosh,t.co,fda.gov,Cincinnati,39.163898,-84.451599,America/New_York,2012-03-16 18:49:15,2012-03-16 16:45:02
Mozilla/5.0 ,"Windows NT 5.1) AppleWebKit/535.7 (KHTML, like Gecko) Chrome/16.0.912.77 Safari/535.7",hootsuite.com,whitehouse.gov,Washington,38.8932,-77.049004,America/New_York,2012-03-16 18:49:18,2012-03-16 18:14:19
Mozilla/5.0 ,Windows NT 6.1,facebook.com,nasa.gov,Burgas,42.5,27.4667,Europe/Sofia,2012-03-16 18:49:18,2012-03-16 18:34:14
Mozilla/4.0 ,Windows NT 6.1,togetter.com,navy.mil,Nogata,33.733299,130.733307,Asia/Tokyo,2012-03-16 18:49:22,2010-08-02 03:42:02
Mozilla/5.0 ,Windows NT 6.1,facebook.com,nasa.gov,Rome,41.900002,12.4833,Europe/Rome,2012-03-16 18:49:24,2012-03-16 18:34:14
Mozilla/5.0 ,Windows NT 6.1,facebook.com,nasa.gov,Bogot,4.6,-74.083298,America/Bogota,2012-03-16 18:49:25,2012-03-16 18:34:14
Mozilla/5.0 ,Linux,t.co,wv.gov,Fremont,41.359798,-83.125504,America/New_York,2012-03-16 18:49:26,2012-03-16 12:36:54
Mozilla/5.0 ,Windows NT 6.1,facebook.com,nasa.gov,Cairo,30.049999,31.25,Africa/Cairo,2012-03-16 18:49:30,2012-03-16 18:34:14
Mozilla/5.0 ,iPad,m.facebook.com,apps.mhf.dod.mil,Federal Way,47.305801,-122.346001,America/Los_Angeles,2012-03-16 18:49:34,2012-03-16 15:22:27
Mozilla/4.0 ,Windows NT 6.1,togetter.com,navy.mil,Nogata,33.733299,130.733307,Asia/Tokyo,2012-03-16 18:49:47,2010-08-02 03:44:28
Mozilla/5.0 ,"Windows NT 5.1) AppleWebKit/534.24 (KHTML, like Gecko) Chrome/11.0.696.71 Safari/534.24",facebook.com,nasa.gov,Bristow,38.740501,-77.562103,America/New_York,2012-03-16 18:49:53,2012-03-16 13:50:29
Mozilla/4.0 ,Windows NT 6.1,facebook.com,nd.gov,West Fargo,46.891399,-96.929398,America/Chicago,2012-03-16 18:49:54,2012-03-16 14:55:54
Mozilla/5.0 ,Windows NT 5.1,langleynewmedia.com,wsdot.wa.gov,Saint Petersburg,27.817801,-82.677299,America/New_York,2012-03-16 18:49:57,2010-06-24 13:32:50
Mozilla/5.0 ,Windows NT 6.1,aashtojournal.org,thomas.loc.gov,Milford,39.165901,-84.229599,America/New_York,2012-03-16 18:49:59,2011-11-09 17:20:36
Mozilla/5.0 ,Windows NT 5.1,t.co,healthfinder.gov,Cuyahoga Falls,41.148201,-81.473602,America/New_York,2012-03-16 18:49:58,2012-03-12 12:32:02
Mozilla/5.0 ,Windows NT 6.1,t.co,kingcounty.gov,Seattle,47.5951,-122.332603,America/Los_Angeles,2012-03-16 18:50:01,2012-03-02 23:34:57
Mozilla/5.0 ,Windows NT 6.1,t.co,apod.nasa.gov,Brasa,-15.7833,-47.916698,America/Sao_Paulo,2012-03-16 18:50:04,2012-03-16 18:37:48
Mozilla/5.0 ,Macintosh,facebook.com,stpaul.gov,Saint Paul,44.935799,-93.163101,America/Chicago,2012-03-16 18:50:04,2012-03-16 16:58:39
Mozilla/5.0 ,Windows NT 6.1,facebook.com,nasa.gov,Nova Gorica,45.961399,13.6436,Europe/Ljubljana,2012-03-16 18:50:07,2012-03-16 18:34:14
Mozilla/4.0 ,Windows NT 6.1,togetter.com,navy.mil,Nogata,33.733299,130.733307,Asia/Tokyo,2012-03-16 18:50:07,2010-08-02 03:47:20
Mozilla/5.0 ,"Windows NT 5.1) AppleWebKit/535.11 (KHTML, like Gecko) Chrome/17.0.963.79 Safari/535.11",facebook.com,nasa.gov,Copenhagen,55.666698,12.5833,Europe/Copenhagen,2012-03-16 18:50:09,2012-03-16 18:34:14
Mozilla/5.0 ,Windows,facebook.com,cdcr.ca.gov,Lady Lake,28.931801,-81.954102,America/New_York,2012-03-16 18:50:09,2009-07-23 14:55:50
Mozilla/5.0 ,Windows NT 6.1,aashtojournal.org,hdl.loc.gov,Washington,38.909698,-77.023102,America/New_York,2012-03-16 18:50:10,2012-03-09 17:03:25
Mozilla/5.0 ,"Windows NT 5.1) AppleWebKit/535.11 (KHTML, like Gecko) Chrome/17.0.963.79 Safari/535.11",t.co,apod.nasa.gov,Mexico,19.4342,-99.138603,America/Mexico_City,2012-03-16 18:50:20,2012-03-12 05:36:44
Mozilla/5.0 ,iPad,twitter.com,nasa.gov,Tampere,61.5,23.75,Europe/Helsinki,2012-03-16 18:50:21,2012-03-13 20:33:30
Mozilla/5.0 ,"Windows NT 5.1) AppleWebKit/535.11 (KHTML, like Gecko) Chrome/17.0.963.79 Safari/535.11",facebook.com,nasa.gov,Bad,46.233299,27.6667,Europe/Bucharest,2012-03-16 18:50:21,2012-03-16 18:34:14
Mozilla/4.0 ,Windows NT 6.1,togetter.com,navy.mil,Nogata,33.733299,130.733307,Asia/Tokyo,2012-03-16 18:50:23,2010-08-02 03:50:54
Mozilla/5.0 ,Windows NT 6.0,barackobama.com,whitehouse.gov,Skokie,42.0382,-87.7285,America/Chicago,2012-03-16 18:50:23,2012-03-15 12:23:59
Mozilla/4.0 ,Windows NT 6.1,aashtojournal.org,thomas.loc.gov,Ames,42.065701,-93.692802,America/Chicago,2012-03-16 18:50:28,2012-03-16 00:31:02
Mozilla/4.0 ,Windows NT 6.1,shrewsbury-ma.gov,shrewsbury-ma.gov,Shrewsbury,42.286499,-71.714699,America/New_York,2012-03-16 18:50:28,2010-05-12 13:53:31
Mozilla/4.0 ,Windows NT 6.1,shrewsbury-ma.gov,shrewsbury-ma.gov,Shrewsbury,42.286499,-71.714699,America/New_York,2012-03-16 18:50:28,2010-05-12 13:55:06
Mozilla/5.0 ,Windows NT 6.1,facebook.com,nasa.gov,Glen Rose,32.199001,-97.793404,America/Chicago,2012-03-16 18:50:38,2012-03-16 18:34:14
Mozilla/5.0 ,iPhone,twitter.com,nasa.gov,Birmingham,52.466702,-1.9167,Europe/London,2012-03-16 18:50:41,2012-03-16 14:30:47
Mozilla/4.0 ,Windows NT 6.1,togetter.com,navy.mil,Nogata,33.733299,130.733307,Asia/Tokyo,2012-03-16 18:50:44,2010-08-02 03:54:05
Mozilla/5.0 ,Windows NT 6.1,plus.url.google.com,nasa.gov,Denver,39.743698,-104.979301,America/Denver,2012-03-16 18:50:44,2012-03-16 18:34:14
Mozilla/5.0 ,"Windows NT 6.1) AppleWebKit/535.11 (KHTML, like Gecko) Chrome/17.0.963.79 Safari/535.11",t.co,navy.mil,Gorham,43.722401,-70.462196,America/New_York,2012-03-16 18:50:46,2012-03-16 16:09:24
Mozilla/4.0 ,Windows NT 6.1,shrewsbury-ma.gov,shrewsbury-ma.gov,Cary,35.805901,-78.799698,America/New_York,2012-03-16 18:50:49,2010-05-12 13:55:06
Mozilla/4.0 ,Windows NT 6.1,shrewsbury-ma.gov,shrewsbury-ma.gov,Cary,35.805901,-78.799698,America/New_York,2012-03-16 18:50:50,2010-05-12 13:53:31
Mozilla/5.0 ,Windows NT 5.1,t.co,ankenyiowa.gov,Columbus,39.996799,-82.988197,America/New_York,2012-03-16 18:50:52,2012-03-16 17:55:10
Mozilla/4.0 ,Windows NT 6.1,shrewsbury-ma.gov,shrewsbury-ma.gov,Shrewsbury,42.286499,-71.714699,America/New_York,2012-03-16 18:50:53,2010-05-12 13:55:06
Mozilla/4.0 ,Windows NT 6.1,shrewsbury-ma.gov,shrewsbury-ma.gov,Shrewsbury,42.286499,-71.714699,America/New_York,2012-03-16 18:50:53,2010-05-12 13:53:31
Mozilla/5.0 ,iPhone,twitter.com,house.gov,Powder Springs,33.882,-84.7062,America/New_York,2012-03-16 18:50:54,2012-03-15 21:48:06
Mozilla/5.0 ,Macintosh,t.co,ncbi.nlm.nih.gov,Plano,33.055901,-96.731102,America/Chicago,2012-03-16 18:50:57,2012-03-11 22:21:46
Mozilla/5.0 ,Windows NT 6.1,facebook.com,nasa.gov,Castuera,38.716702,-5.55,Europe/Madrid,2012-03-16 18:50:56,2012-03-16 18:34:14
Opera/9.80 ,Windows NT 5.1,facebook.com,nasa.gov,Gaziantep,37.059399,37.3825,Asia/Istanbul,2012-03-16 18:50:58,2012-03-16 18:34:14
Mozilla/4.0 ,Windows NT 6.1,shrewsbury-ma.gov,shrewsbury-ma.gov,Shrewsbury,42.286499,-71.714699,America/New_York,2012-03-16 18:50:59,2010-05-12 13:55:06
Mozilla/4.0 ,Windows NT 6.1,shrewsbury-ma.gov,shrewsbury-ma.gov,Shrewsbury,42.286499,-71.714699,America/New_York,2012-03-16 18:50:59,2010-05-12 13:53:31
Mozilla/4.0 ,Windows NT 6.1,togetter.com,navy.mil,Nogata,33.733299,130.733307,Asia/Tokyo,2012-03-16 18:51:01,2010-08-02 03:55:57
Mozilla/5.0 ,Macintosh,barackobama.com,whitehouse.gov,Chicago,41.8876,-87.636803,America/Chicago,2012-03-16 18:51:09,2012-03-15 12:23:59
Mozilla/5.0 ,Macintosh,facebook.com,nasa.gov,Poway,32.977402,-117.023201,America/Los_Angeles,2012-03-16 18:51:11,2012-03-16 14:30:47
Mozilla/5.0 ,iPad,twitter.com,nasa.gov,Truro,50.2617,-5.0433,Europe/London,2012-03-16 18:51:13,2012-03-16 14:30:47
Mozilla/5.0 ,Windows NT 5.1,t.co,whitehouse.gov,Berkeley,37.878399,-122.2603,America/Los_Angeles,2012-03-16 18:51:15,2012-03-16 18:14:19
Mozilla/5.0 ,Windows NT 6.1,selco.shrewsbury-ma.gov,shrewsbury-ma.gov,Shrewsbury,42.286499,-71.714699,America/New_York,2012-03-16 18:51:16,2010-05-12 13:55:06
Mozilla/5.0 ,Windows NT 6.1,selco.shrewsbury-ma.gov,shrewsbury-ma.gov,Shrewsbury,42.286499,-71.714699,America/New_York,2012-03-16 18:51:16,2010-05-12 13:53:31
Mozilla/5.0 ,Linux,t.co,nasa.gov,Fredericksburg,38.302299,-77.484703,America/New_York,2012-03-16 18:51:18,2012-03-16 14:30:47
Mozilla/4.0 ,Windows NT 6.1,togetter.com,navy.mil,Nogata,33.733299,130.733307,Asia/Tokyo,2012-03-16 18:51:19,2010-08-02 03:57:57
Mozilla/5.0 ,Windows NT 6.1,t.co,nasa.gov,West Jefferson,36.354599,-81.472801,America/New_York,2012-03-16 18:51:20,2012-03-16 14:30:47
Mozilla/5.0 ,Macintosh,t.co,apod.nasa.gov,Mexico,19.4342,-99.138603,America/Mexico_City,2012-03-16 18:51:20,2012-03-12 05:36:44
Mozilla/5.0 ,Windows NT 6.1,facebook.com,drugabuse.gov,Pompano Beach,26.2528,-80.176903,America/New_York,2012-03-16 18:51:22,2012-01-19 11:20:33
Mozilla/5.0 ,Windows NT 6.1,facebook.com,nasa.gov,Hanover,52.366699,9.7167,Europe/Berlin,2012-03-16 18:51:24,2012-03-16 18:34:14
Mozilla/5.0 ,"Windows NT 5.1) AppleWebKit/535.11 (KHTML, like Gecko) Chrome/17.0.963.79 Safari/535.11",google.com,fda.gov,Port Chester,41.023201,-73.679497,America/New_York,2012-03-16 18:51:24,2012-02-09 19:12:55
Mozilla/4.0 ,Windows NT 6.1,t.co,boxer.senate.gov,Washington,38.9007,-77.043098,America/New_York,2012-03-16 18:51:26,2012-03-16 17:45:41
Mozilla/4.0 ,Windows NT 6.1,sltrib.com,elections.utah.gov,Salt Lake City,40.7561,-111.900703,America/Denver,2012-03-16 18:51:27,2012-03-14 01:03:50
Mozilla/5.0 ,iPad,twitter.com,radar.weather.gov,Waterbury,41.558498,-73.033096,America/New_York,2012-03-16 18:51:30,2009-07-07 13:59:00
Mozilla/4.0 ,Windows NT 6.1,togetter.com,navy.mil,Nogata,33.733299,130.733307,Asia/Tokyo,2012-03-16 18:51:41,2010-08-02 03:59:41
Mozilla/4.0 ,Windows NT 6.1,shrewsbury-ma.gov,shrewsbury-ma.gov,Shrewsbury,42.286499,-71.714699,America/New_York,2012-03-16 18:51:43,2010-05-12 13:53:31
Mozilla/4.0 ,Windows NT 6.1,shrewsbury-ma.gov,shrewsbury-ma.gov,Shrewsbury,42.286499,-71.714699,America/New_York,2012-03-16 18:51:43,2010-05-12 13:55:06
Mozilla/5.0 ,Windows NT 6.1,plus.url.google.com,nasa.gov,Milan,45.466702,9.2,Europe/Rome,2012-03-16 18:51:50,2012-03-16 13:50:29
Mozilla/5.0 ,Windows NT 6.1,bl162w.blu162.mail.live.com,nysenate.gov,Eastchester,40.9529,-73.809303,America/New_York,2012-03-16 18:51:55,2012-03-16 15:06:57
Mozilla/5.0 ,Windows NT 6.1,plus.url.google.com,nasa.gov,Denver,39.762001,-104.9132,America/Denver,2012-03-16 18:51:56,2012-03-16 18:34:14
Mozilla/5.0 ,Windows NT 6.1,facebook.com,nasa.gov,Tyler,32.318001,-95.292099,America/Chicago,2012-03-16 18:51:56,2012-03-16 18:34:14
Mozilla/5.0 ,"Windows NT 5.1) AppleWebKit/535.11 (KHTML, like Gecko) Chrome/17.0.963.79 Safari/535.11",nysenate.gov,nysenate.gov,New York,40.761902,-73.976303,America/New_York,2012-03-16 18:51:57,2012-03-15 19:06:03
Mozilla/5.0 ,Windows NT 6.1,t.co,whitehouse.gov,Chicago,41.8675,-87.6744,America/Chicago,2012-03-16 18:52:01,2012-03-16 13:48:15
Mozilla/4.0 ,Windows NT 6.1,togetter.com,navy.mil,Nogata,33.733299,130.733307,Asia/Tokyo,2012-03-16 18:52:00,2010-08-02 04:02:41
Mozilla/5.0 ,Windows NT 6.1,facebook.com,nasa.gov,Naples,26.288799,-81.529999,America/New_York,2012-03-16 18:52:04,2012-03-16 18:34:14
Mozilla/5.0 ,Windows NT 6.1,t.co,kingcounty.gov,Seattle,47.634399,-122.342201,America/Los_Angeles,2012-03-16 18:52:08,2012-03-02 23:34:57
Mozilla/5.0 ,Macintosh,facebook.com,nasa.gov,Valencia,39.466702,-0.3667,Europe/Madrid,2012-03-16 18:52:12,2012-03-16 18:34:14
Mozilla/5.0 ,iPhone,twitter.com,apod.nasa.gov,Monterrey,25.6667,-100.316704,America/Monterrey,2012-03-16 18:52:13,2012-03-12 05:36:44
Mozilla/4.0 ,Windows NT 6.1,messages.finance.yahoo.com,fda.gov,Chicago,41.8675,-87.6744,America/Chicago,2012-03-16 18:52:13,2012-03-16 15:24:34
Mozilla/4.0 ,Windows NT 6.1,togetter.com,navy.mil,Nogata,33.733299,130.733307,Asia/Tokyo,2012-03-16 18:52:22,2009-06-16 14:49:13
Mozilla/4.0 ,Windows NT 6.1,yandex.ru,nps.gov,Moscow,55.752201,37.615601,Europe/Moscow,2012-03-16 18:52:24,2011-03-30 10:45:36
Mozilla/5.0 ,Windows NT 6.1,facebook.com,nasa.gov,Muskegon,43.2271,-86.224098,America/New_York,2012-03-16 18:52:31,2012-03-16 18:34:14
Mozilla/4.0 ,Windows NT 6.1,t.co,boxer.senate.gov,Washington,38.9007,-77.043098,America/New_York,2012-03-16 18:52:30,2012-03-16 17:45:41
Mozilla/5.0 ,Windows NT 6.1,pia.org,cga.ct.gov,Albany,42.716099,-73.815804,America/New_York,2012-03-16 18:52:34,2012-03-16 16:14:09
Mozilla/5.0 ,Windows NT 6.1,facebook.com,nasa.gov,Thessalon,40.640301,22.943899,Europe/Athens,2012-03-16 18:52:35,2012-03-16 18:34:14
Mozilla/4.0 ,Windows NT 6.1,t.co,kingcounty.gov,Gig Harbor,47.343498,-122.6474,America/Los_Angeles,2012-03-16 18:52:38,2012-03-02 23:34:57
Mozilla/4.0 ,Windows NT 6.1,facebook.com,nasa.gov,Stafford,38.4519,-77.442101,America/New_York,2012-03-16 18:52:38,2012-03-16 13:50:29
Mozilla/5.0 ,Macintosh,t.co,stripes.com,Ceska,49.283298,16.5667,Europe/Prague,2012-03-16 18:52:39,2012-03-16 09:57:15
Mozilla/5.0 ,Windows NT 6.1,t.co,cbo.gov,Lynnwood,47.804901,-122.283302,America/Los_Angeles,2012-03-16 18:52:40,2012-03-16 14:41:30
Mozilla/4.0 ,Windows NT 6.1,t.co,yosemite.epa.gov,New York,40.713902,-74.007896,America/New_York,2012-03-16 18:52:41,2012-03-16 18:44:45
Mozilla/4.0 ,Windows NT 6.1,togetter.com,navy.mil,Nogata,33.733299,130.733307,Asia/Tokyo,2012-03-16 18:52:44,2009-06-15 16:43:13
Mozilla/5.0 ,Windows NT 6.1,facebook.com,nasa.gov,Houston,29.587799,-95.224098,America/Chicago,2012-03-16 18:52:50,2012-03-16 18:34:14
Mozilla/4.0 ,Windows NT 6.1,shrewsbury-ma.gov,shrewsbury-ma.gov,Shrewsbury,42.286499,-71.714699,America/New_York,2012-03-16 18:52:52,2010-05-12 13:53:31
Mozilla/4.0 ,Windows NT 6.1,shrewsbury-ma.gov,shrewsbury-ma.gov,Shrewsbury,42.286499,-71.714699,America/New_York,2012-03-16 18:52:52,2010-05-12 13:55:06
Mozilla/5.0 ,"Windows NT 5.1) AppleWebKit/535.11 (KHTML, like Gecko) Chrome/17.0.963.79 Safari/535.11",us.mc1205.mail.yahoo.com,nasa.gov,Orlando,28.5037,-81.330597,America/New_York,2012-03-16 18:52:54,2011-07-19 01:10:27
Mozilla/5.0 ,Windows NT 6.1,facebook.com,whitehouse.gov,Tyler,32.2313,-95.295799,America/Chicago,2012-03-16 18:52:58,2012-03-15 19:47:36
Mozilla/5.0 ,Windows NT 5.1,mtsu.edu,nces.ed.gov,Murfreesboro,35.8596,-86.420998,America/Chicago,2012-03-16 18:52:59,2010-03-16 10:10:55
Mozilla/5.0 ,Macintosh,facebook.com,nasa.gov,Boulder,40.087799,-105.373497,America/Denver,2012-03-16 18:53:01,2012-03-14 18:23:49
Mozilla/5.0 ,"Windows NT 6.1) AppleWebKit/535.11 (KHTML, like Gecko) Chrome/17.0.963.79 Safari/535.11",newworldinvestor.com,fda.gov,West Sayville,40.730598,-73.099503,America/New_York,2012-03-16 18:53:01,2012-03-16 14:38:37
Mozilla/4.0 ,Windows NT 6.1,togetter.com,navy.mil,Nogata,33.733299,130.733307,Asia/Tokyo,2012-03-16 18:53:03,2010-08-02 04:09:38
Mozilla/5.0 ,iPhone,m.facebook.com,crh.noaa.gov,Chicago,41.8675,-87.6744,America/Chicago,2012-03-16 18:53:03,2012-03-16 16:27:27
Mozilla/4.0 ,Windows NT 6.1,facebook.com,nasa.gov,Porto,41.150002,-8.6167,Europe/Lisbon,2012-03-16 18:53:04,2012-03-16 18:34:14
Mozilla/5.0 ,Linux,t.co,nasa.gov,Peterborough,52.583302,-0.25,Europe/London,2012-03-16 18:53:08,2012-03-16 14:30:47
Mozilla/4.0 ,Windows NT 6.1,t.co,nasa.gov,Philadelphia,39.977402,-75.145203,America/New_York,2012-03-16 18:53:09,2012-03-14 18:23:49
Mozilla/5.0 ,Macintosh,t.co,kingcounty.gov,Seattle,47.6381,-122.371498,America/Los_Angeles,2012-03-16 18:53:16,2012-03-02 23:34:57
Mozilla/5.0 ,Windows NT 5.1,t.co,fbi.gov,Fishers,39.960999,-85.983704,America/Indianapolis,2012-03-16 18:53:22,2012-03-16 18:51:26
Mozilla/4.0 ,Windows NT 6.1,t.co,boxer.senate.gov,Washington,38.9007,-77.043098,America/New_York,2012-03-16 18:53:23,2012-03-16 17:45:41
Mozilla/5.0 ,Windows NT 6.1,forum2.hkgolden.com,usno.navy.mil,Central District,22.2833,114.150002,Asia/Hong_Kong,2012-03-16 18:53:25,2011-09-29 17:40:39
Mozilla/5.0 ,Windows NT 6.1,forum2.hkgolden.com,ssd.noaa.gov,Central District,22.2833,114.150002,Asia/Hong_Kong,2012-03-16 18:53:25,2011-09-29 17:40:30
Mozilla/4.0 ,Windows NT 6.1,togetter.com,navy.mil,Nogata,33.733299,130.733307,Asia/Tokyo,2012-03-16 18:53:27,2010-08-02 04:11:58
Mozilla/5.0 ,Windows NT 6.1,t.co,louise.house.gov,Delray Beach,26.4611,-80.067497,America/New_York,2012-03-16 18:53:26,2012-03-13 14:57:18
LG-LG220C[TF268435458416597116000000013524223841] UP.Browser/6.2.3.8 ,GUI) MMP/2.0,m.facebook.com,nasa.gov,Raleigh,35.842999,-78.631104,America/New_York,2012-03-16 18:53:29,2012-03-16 18:08:12
Mozilla/5.0 ,"Windows NT 6.0) AppleWebKit/534.30 (KHTML, like Gecko) Chrome/12.0.742.122 Safari/534.30",facebook.com,nasa.gov,Riverview,27.8223,-82.279701,America/New_York,2012-03-16 18:53:29,2012-03-16 18:34:14
Mozilla/5.0 ,Windows NT 6.1,facebook.com,nasa.gov,Port Huron,42.987499,-82.466599,America/New_York,2012-03-16 18:53:30,2012-03-16 18:34:14
Mozilla/5.0 ,Windows NT 6.1,facebook.com,af.mil,Sioux Falls,43.595402,-96.701698,America/Chicago,2012-03-16 18:53:31,2012-03-13 08:33:29
Mozilla/5.0 ,Windows NT 6.1,plus.url.google.com,nasa.gov,Morrisville,35.8601,-78.832603,America/New_York,2012-03-16 18:53:33,2012-03-16 18:34:14
Mozilla/5.0 ,iPad,facebook.com,army.mil,Winnipeg,49.883301,-97.166702,America/Winnipeg,2012-03-16 18:53:35,2012-03-16 15:28:54
Mozilla/5.0 ,Windows NT 6.1,facebook.com,nasa.gov,Epsom,51.3167,-0.2667,Europe/London,2012-03-16 18:53:36,2012-03-16 18:34:14
Mozilla/5.0 ,Windows NT 6.0,conferencealerts.com,jgi.doe.gov,Riga,56.950001,24.1,Europe/Riga,2012-03-16 18:53:35,2011-02-09 14:02:11
Mozilla/5.0 ,"Windows NT 5.1) AppleWebKit/535.7 (KHTML, like Gecko) Chrome/16.0.912.77 Safari/535.7",facebook.com,nasa.gov,Blacksburg,37.1791,-80.351501,America/New_York,2012-03-16 18:53:38,2012-03-16 18:34:14
Mozilla/5.0 ,Windows NT 6.1,facebook.com,nasa.gov,gelholm,56.25,12.8667,Europe/Stockholm,2012-03-16 18:53:41,2012-03-16 18:08:12
Mozilla/4.0 ,Windows NT 6.1,togetter.com,navy.mil,Nogata,33.733299,130.733307,Asia/Tokyo,2012-03-16 18:53:46,2010-08-02 04:14:09
Mozilla/4.0 ,Windows NT 6.1,facebook.com,nasa.gov,Los Angeles,34.041599,-118.298798,America/Los_Angeles,2012-03-16 18:53:46,2012-03-16 18:34:14
Mozilla/5.0 ,iPhone,m.facebook.com,nasa.gov,Johnston,41.703098,-93.720398,America/Chicago,2012-03-16 18:53:53,2012-03-16 18:34:14
Mozilla/5.0 ,iPad,m.facebook.com,fairfaxcounty.gov,Falls Church,38.871799,-77.172096,America/New_York,2012-03-16 18:53:53,2012-03-16 17:48:43
Mozilla/5.0 ,iPhone,m.facebook.com,nasa.gov,Bucharest,44.4333,26.1,Europe/Bucharest,2012-03-16 18:53:54,2012-03-16 14:44:31
Mozilla/5.0 ,iPad,twitter.com,nasa.gov,Milan,45.466702,9.2,Europe/Rome,2012-03-16 18:53:55,2012-03-16 18:33:15
Mozilla/5.0 ,Linux,t.co,radar.weather.gov,Valley Park,38.557701,-90.498596,America/Chicago,2012-03-16 18:53:56,2012-03-15 21:20:48
Mozilla/5.0 ,Windows NT 6.1,t.co,apod.nasa.gov,Mexico,19.4342,-99.138603,America/Mexico_City,2012-03-16 18:53:58,2012-03-12 05:36:44
Mozilla/4.0 ,Windows NT 6.1,togetter.com,navy.mil,Nogata,33.733299,130.733307,Asia/Tokyo,2012-03-16 18:54:03,2010-08-02 04:16:08
Mozilla/5.0 ,"Windows NT 6.1) AppleWebKit/535.11 (KHTML, like Gecko) Chrome/17.0.963.79 Safari/535.11",facebook.com,nasa.gov,Rockford,42.271099,-89.059303,America/Chicago,2012-03-16 18:54:03,2012-03-16 18:34:14
Mozilla/5.0 ,Macintosh,t.co,nasa.gov,Concepci,-36.833302,-73.050003,Chile/Continental,2012-03-16 18:54:06,2012-03-16 18:34:14
Mozilla/5.0 ,Windows NT 5.1,t.co,nasa.gov,Samsun,41.286701,36.330002,Asia/Istanbul,2012-03-16 18:54:07,2012-03-16 14:30:47
Mozilla/5.0 ,iPhone,twitter.com,ncbi.nlm.nih.gov,London,51.500198,-0.1262,Europe/London,2012-03-16 18:54:10,2012-03-16 12:58:54
Mozilla/5.0 ,iPhone,twitter.com,wrh.noaa.gov,Los Angeles,34.052299,-118.385201,America/Los_Angeles,2012-03-16 18:54:12,2012-03-16 15:31:55
Mozilla/5.0 ,"Windows NT 5.1) AppleWebKit/535.11 (KHTML, like Gecko) Chrome/17.0.963.79 Safari/535.11",plus.url.google.com,nasa.gov,Mexico,19.4342,-99.138603,America/Mexico_City,2012-03-16 18:54:15,2012-03-16 13:50:29
Mozilla/5.0 ,Macintosh,facebook.com,nasa.gov,San Francisco,37.748402,-122.415604,America/Los_Angeles,2012-03-16 18:54:17,2012-03-16 18:34:14
Mozilla/5.0 ,iPad,twitter.com,whitehouse.gov,SPaulo,-23.5333,-46.616699,America/Sao_Paulo,2012-03-16 18:54:21,2012-03-16 15:26:24
Mozilla/4.0 ,Windows NT 6.1,togetter.com,navy.mil,Nogata,33.733299,130.733307,Asia/Tokyo,2012-03-16 18:54:24,2010-08-02 04:17:58
Mozilla/5.0 ,Windows NT 6.1,facebook.com,nasa.gov,Saint-nicolas-de-port,48.633301,6.3,Europe/Paris,2012-03-16 18:54:23,2012-03-16 18:34:14
Mozilla/5.0 ,Windows NT 6.1,cbs8.com,forecast.weather.gov,Littleton,39.528999,-104.904999,America/Denver,2012-03-16 18:54:24,2011-04-24 00:05:16
Mozilla/5.0 ,Windows NT 6.1,facebook.com,nasa.gov,Boston,42.3424,-71.087799,America/New_York,2012-03-16 18:54:26,2012-03-16 18:34:14
Mozilla/5.0 ,Windows NT 6.1,sltrib.com,elections.utah.gov,Minnetonka,44.9198,-93.4832,America/Chicago,2012-03-16 18:54:28,2012-03-14 01:03:50
Mozilla/5.0 ,Windows NT 6.0,t.co,kingcounty.gov,Sammamish,47.603699,-122.0261,America/Los_Angeles,2012-03-16 18:54:32,2012-03-02 23:34:57
Mozilla/5.0 ,"Windows NT 6.0) AppleWebKit/535.11 (KHTML, like Gecko) Chrome/17.0.963.79 Safari/535.11",t.co,nasa.gov,Greenville,34.847698,-82.379097,America/New_York,2012-03-16 18:54:32,2012-03-16 14:30:47
Mozilla/5.0 ,iPad,twitter.com,michigan.gov,Traverse City,44.795101,-85.649803,America/New_York,2012-03-16 18:54:38,2012-03-16 12:31:26
Mozilla/5.0 ,Windows NT 6.1,facebook.com,nasa.gov,Castuera,38.716702,-5.55,Europe/Madrid,2012-03-16 18:54:40,2012-03-16 18:34:14
Mozilla/5.0 ,Windows NT 5.1,facebook.com,nasa.gov,Przezmierowo,52.4333,16.7167,Europe/Warsaw,2012-03-16 18:54:39,2012-03-16 18:34:14
Mozilla/5.0 ,"Windows NT 6.0) AppleWebKit/535.11 (KHTML, like Gecko) Chrome/17.0.963.79 Safari/535.11",t.co,nasa.gov,Arkadelphia,34.026798,-93.0644,America/Chicago,2012-03-16 18:54:41,2012-03-16 13:29:58
Mozilla/5.0 ,Windows NT 5.1,t.co,nasa.gov,Berlin,52.516701,13.4,Europe/Berlin,2012-03-16 18:54:45,2012-03-13 20:33:30
Mozilla/5.0 ,Macintosh,t.co,nasa.gov,Concepci,-36.833302,-73.050003,Chile/Continental,2012-03-16 18:54:46,2012-03-16 18:34:14
Mozilla/5.0 ,iPhone,m.facebook.com,cdcr.ca.gov,Winters,38.5602,-121.996101,America/Los_Angeles,2012-03-16 18:54:47,2009-07-23 14:55:50
Mozilla/5.0 ,Windows NT 6.0,healthfinder.gov,cdc.gov,Peoria,33.6534,-112.246201,America/Phoenix,2012-03-16 18:54:53,2011-06-13 16:04:50
Mozilla/5.0 ,Windows,facebook.com,nasa.gov,Evanston,42.058601,-87.684502,America/Chicago,2012-03-16 18:54:53,2012-03-16 18:34:14
Mozilla/5.0 ,Windows NT 5.1,t.co,earthobservatory.nasa.gov,Valencia,39.466702,-0.3667,Europe/Madrid,2012-03-16 18:54:53,2011-11-11 21:39:53
Mozilla/5.0 ,Windows NT 6.1,roosterteeth.com,irs.gov,Brockville,44.583302,-75.683296,America/Rainy_River,2012-03-16 18:54:53,2012-03-14 16:24:17
Mozilla/5.0 ,Macintosh,t.co,nasa.gov,Concepci,-36.833302,-73.050003,Chile/Continental,2012-03-16 18:54:53,2012-03-16 18:34:14
Mozilla/4.0 ,Windows NT 6.1,togetter.com,navy.mil,Nogata,33.733299,130.733307,Asia/Tokyo,2012-03-16 18:55:00,2010-08-02 04:17:58
Mozilla/5.0 ,Macintosh,facebook.com,nasa.gov,Paso Robles,35.6189,-120.766899,America/Los_Angeles,2012-03-16 18:55:01,2012-03-16 18:34:14
Mozilla/5.0 ,"Windows NT 5.1) AppleWebKit/535.11 (KHTML, like Gecko) Chrome/17.0.963.79 Safari/535.11",shrewsbury-ma.gov,shrewsbury-ma.gov,Natick,42.2873,-71.352402,America/New_York,2012-03-16 18:55:04,2010-05-12 13:53:31
Mozilla/5.0 ,Macintosh,facebook.com,nasa.gov,Buenos Aires,-34.587502,-58.672501,America/Argentina/Buenos_Aires,2012-03-16 18:55:05,2012-03-16 18:34:14
Mozilla/5.0 ,"Windows NT 5.1) AppleWebKit/535.11 (KHTML, like Gecko) Chrome/17.0.963.79 Safari/535.11",shrewsbury-ma.gov,shrewsbury-ma.gov,Natick,42.2873,-71.352402,America/New_York,2012-03-16 18:55:04,2010-05-12 13:55:06
Mozilla/5.0 ,Linux,shrewsbury-ma.gov,shrewsbury-ma.gov,Brooklyn,40.6525,-73.955399,America/New_York,2012-03-16 18:55:08,2010-05-12 13:53:31
Mozilla/5.0 ,Linux,shrewsbury-ma.gov,shrewsbury-ma.gov,Brooklyn,40.6525,-73.955399,America/New_York,2012-03-16 18:55:08,2010-05-12 13:55:06
Mozilla/5.0 ,Macintosh,t.co,ncbi.nlm.nih.gov,Bronx,40.849899,-73.8769,America/New_York,2012-03-16 18:55:08,2012-03-04 19:00:15
Mozilla/5.0 ,Windows NT 6.1,facebook.com,nasa.gov,Mitry-mory,48.983299,2.6167,Europe/Paris,2012-03-16 18:55:12,2012-03-16 18:34:14
Mozilla/5.0 ,Windows NT 6.1,t.co,blogs.loc.gov,Silver Spring,39.052101,-77.014999,America/New_York,2012-03-16 18:55:12,2012-03-15 14:48:15
Mozilla/5.0 ,Windows NT 6.1,nccpr.org,acf.hhs.gov,Chippewa Falls,44.9617,-91.4403,America/Chicago,2012-03-16 18:55:13,2011-10-08 20:18:31
Mozilla/4.0 ,Windows NT 6.1,togetter.com,navy.mil,Nogata,33.733299,130.733307,Asia/Tokyo,2012-03-16 18:55:13,2010-08-02 04:19:41
Mozilla/5.0 ,Macintosh,t.co,capitol.hawaii.gov,Eagle River,61.214901,-149.258301,America/Anchorage,2012-03-16 18:55:14,2012-03-15 03:10:44
Mozilla/5.0 ,Macintosh,facebook.com,nasa.gov,Houston,29.830099,-95.4739,America/Chicago,2012-03-16 18:55:20,2012-03-16 18:34:14
Mozilla/5.0 ,"Windows NT 5.1) AppleWebKit/535.11 (KHTML, like Gecko) Chrome/17.0.963.79 Safari/535.11",t.co,fda.gov,Philadelphia,40.037498,-75.145401,America/New_York,2012-03-16 18:55:25,2012-03-16 18:49:00
Mozilla/4.0 ,Windows NT 6.1,investorshub.advfn.com,fda.gov,Trenton,40.256199,-74.758102,America/New_York,2012-03-16 18:55:28,2011-01-13 18:22:45
Mozilla/4.0 ,Windows NT 6.1,togetter.com,navy.mil,Nogata,33.733299,130.733307,Asia/Tokyo,2012-03-16 18:55:28,2010-08-02 04:22:31
Mozilla/5.0 ,Windows NT 6.0,facebook.com,loudoun.gov,Chantilly,38.903599,-77.451202,America/New_York,2012-03-16 18:55:32,2012-03-14 20:47:06
Mozilla/5.0 ,"Windows NT 6.1) AppleWebKit/535.11 (KHTML, like Gecko) Chrome/17.0.963.79 Safari/535.11",t.co,nasa.gov,Mexico,19.4342,-99.138603,America/Mexico_City,2012-03-16 18:55:34,2012-03-16 18:12:44
Mozilla/5.0 ,Macintosh,facebook.com,nasa.gov,Houston,29.830099,-95.4739,America/Chicago,2012-03-16 18:55:37,2012-03-16 18:34:14
Mozilla/5.0 ,Windows NT 6.1,facebook.com,nasa.gov,Thessalon,40.640301,22.943899,Europe/Athens,2012-03-16 18:55:40,2012-03-16 18:34:14
Mozilla/5.0 ,Macintosh,t.co,ncbi.nlm.nih.gov,Bronx,40.849899,-73.8769,America/New_York,2012-03-16 18:55:43,2012-03-15 08:35:05
Mozilla/4.0 ,Windows NT 6.1,togetter.com,navy.mil,Nogata,33.733299,130.733307,Asia/Tokyo,2012-03-16 18:55:46,2010-08-02 04:25:50
Mozilla/5.0 ,Windows NT 6.1,facebook.com,nasa.gov,Carolina,18.393999,-65.977898,America/Puerto_Rico,2012-03-16 18:55:51,2012-03-16 18:34:14
Mozilla/5.0 ,Macintosh,t.co,apod.nasa.gov,Mexico,19.4342,-99.138603,America/Mexico_City,2012-03-16 18:55:58,2012-03-12 05:36:44
Mozilla/5.0 ,Windows NT 6.0,facebook.com,nasa.gov,Salt Lake City,40.724201,-111.8787,America/Denver,2012-03-16 18:56:01,2012-03-16 18:34:14
Opera/9.80 ,Windows NT 6.1,facebook.com,nasa.gov,Sylvester,31.540899,-83.874901,America/New_York,2012-03-16 18:56:01,2012-03-16 18:34:14
Mozilla/4.0 ,Windows NT 6.1,togetter.com,navy.mil,Nogata,33.733299,130.733307,Asia/Tokyo,2012-03-16 18:56:03,2010-08-02 04:25:50
Mozilla/5.0 ,Macintosh,facebook.com,nassaucountyny.gov,Massapequa,40.682598,-73.467003,America/New_York,2012-03-16 18:56:04,2012-03-13 18:36:05
Mozilla/5.0 ,"Windows NT 5.1) AppleWebKit/535.11 (KHTML, like Gecko) Chrome/17.0.963.79 Safari/535.11",barackobama.com,whitehouse.gov,Bethesda,38.987801,-77.126198,America/New_York,2012-03-16 18:56:10,2012-03-15 12:23:59
Mozilla/4.0 ,Windows NT 6.1,t.co,kingcounty.gov,Gig Harbor,47.343498,-122.6474,America/Los_Angeles,2012-03-16 18:56:10,2012-03-02 23:34:57
Mozilla/5.0 ,iPhone,m.facebook.com,nasa.gov,Greenback,35.675499,-84.169899,America/Chicago,2012-03-16 18:56:17,2012-03-16 14:30:47
Mozilla/5.0 ,Windows,dailypaul.com,sos.ca.gov,Canyon Country,34.418701,-118.432999,America/Los_Angeles,2012-03-16 18:56:17,2011-05-20 23:09:18
Mozilla/5.0 ,iPhone,twitter.com,wrh.noaa.gov,Bell,33.976101,-118.153503,America/Los_Angeles,2012-03-16 18:56:19,2011-03-23 13:12:45
Mozilla/4.0 ,Windows NT 6.1,cleveland.com,irs.gov,Cincinnati,39.169899,-84.485901,America/New_York,2012-03-16 18:56:19,2012-01-10 20:34:47
Mozilla/5.0 ,iPhone,t.co,forecast.weather.gov,San Diego,32.797699,-117.132202,America/Los_Angeles,2012-03-16 18:56:20,2011-05-01 21:30:00
Mozilla/5.0 ,Windows NT 6.1,facebook.com,nasa.gov,Grenaa,56.416698,10.8833,Europe/Copenhagen,2012-03-16 18:56:23,2012-03-16 18:34:14
Mozilla/5.0 ,Windows NT 6.1,t.co,nasa.gov,Silver Spring,39.052101,-77.014999,America/New_York,2012-03-16 18:56:24,2012-03-14 12:05:50
Opera/9.80 ,Windows NT 6.1,plus.url.google.com,nasa.gov,Dubai,25.252199,55.279999,Asia/Dubai,2012-03-16 18:56:29,2012-03-16 13:50:29
Mozilla/5.0 ,Windows NT 6.1,facebook.com,nasa.gov,Warsaw,52.25,21.0,Europe/Warsaw,2012-03-16 18:56:35,2012-03-16 18:34:14
Mozilla/5.0 ,Linux,t.co,nasa.gov,Wichita,37.6936,-97.4804,America/Chicago,2012-03-16 18:56:44,2012-03-13 20:33:30
Mozilla/4.0 ,Windows NT 6.1,togetter.com,navy.mil,Nogata,33.733299,130.733307,Asia/Tokyo,2012-03-16 18:56:56,2010-08-02 04:27:45
Mozilla/5.0 ,BlackBerry,t.co,yosemite.epa.gov,Selden,40.871399,-73.042503,America/New_York,2012-03-16 18:57:00,2012-03-16 18:44:45
Opera/9.80 ,Windows NT 6.1,facebook.com,nasa.gov,Horten,59.413601,10.4669,Europe/Oslo,2012-03-16 18:57:00,2012-03-16 18:34:14
Mozilla/5.0 ,Windows NT 6.0,facebook.com,nasa.gov,Athens,34.8167,-86.998199,America/Chicago,2012-03-16 18:57:10,2012-03-16 18:34:14
Mozilla/5.0 ,iPhone,twitter.com,nasa.gov,Veenoord,52.716702,6.85,Europe/Amsterdam,2012-03-16 18:57:16,2012-03-15 13:06:42
Mozilla/4.0 ,Windows NT 6.1,togetter.com,navy.mil,Nogata,33.733299,130.733307,Asia/Tokyo,2012-03-16 18:57:16,2010-08-02 04:32:01
Mozilla/5.0 ,"Windows NT 6.1) AppleWebKit/535.11 (KHTML, like Gecko) Chrome/17.0.963.79 Safari/535.11",skihood.com,forecast.weather.gov,Boca Raton,26.345699,-80.115303,America/New_York,2012-03-16 18:57:21,2011-02-13 07:49:47
Mozilla/5.0 ,Windows NT 5.1,today.lbl.gov,jgi.doe.gov,Albany,37.8895,-122.294701,America/Los_Angeles,2012-03-16 18:57:21,2011-09-21 20:11:35
Mozilla/5.0 ,"Windows NT 6.1) AppleWebKit/535.7 (KHTML, like Gecko) RockMelt/0.16.91.345 Chrome/16.0.912.77 Safari/535.7",facebook.com,nasa.gov,Kirov,58.596901,49.658298,Asia/Yekaterinburg,2012-03-16 18:57:21,2012-03-16 18:34:14
Mozilla/5.0 ,"Windows NT 5.1) AppleWebKit/535.11 (KHTML, like Gecko) Chrome/17.0.963.56 Safari/535.11",plus.url.google.com,nasa.gov,Solon,41.386501,-81.440102,America/New_York,2012-03-16 18:57:33,2012-03-16 18:34:14
Mozilla/5.0 ,iPad,twitter.com,nasa.gov,Bratislava,48.150002,17.116699,Europe/Bratislava,2012-03-16 18:57:34,2012-03-16 14:30:47
Mozilla/5.0 ,Windows NT 6.1,t.co,usaid.gov,Silver Spring,39.0261,-77.0084,America/New_York,2012-03-16 18:57:34,2012-03-16 13:51:25
Mozilla/5.0 ,"Windows NT 5.1) AppleWebKit/535.11 (KHTML, like Gecko) Chrome/17.0.963.79 Safari/535.11",t.co,radar.weather.gov,New Haven,41.3111,-72.924103,America/New_York,2012-03-16 18:57:38,2009-07-07 13:59:00
Mozilla/5.0 ,"Windows NT 6.1) AppleWebKit/535.11 (KHTML, like Gecko) Chrome/17.0.963.79 Safari/535.11",facebook.com,nasa.gov,San Giovanni In Fiore,39.25,16.700001,Europe/Rome,2012-03-16 18:57:39,2012-03-16 18:34:14
Mozilla/5.0 ,"Windows NT 5.1) AppleWebKit/535.11 (KHTML, like Gecko) Chrome/17.0.963.79 Safari/535.11",facebook.com,nasa.gov,Gizeh,30.0086,31.2122,Africa/Cairo,2012-03-16 18:57:39,2012-03-16 18:34:14
Mozilla/5.0 ,"Windows NT 5.1) AppleWebKit/535.11 (KHTML, like Gecko) Chrome/17.0.963.79 Safari/535.11",usa.gov,answers.usa.gov,American Fork,40.393002,-111.783798,America/Denver,2012-03-16 18:57:45,2012-01-13 17:50:25
Mozilla/4.0 ,Windows NT 6.1,aashtojournal.org,thomas.loc.gov,Kansas City,39.102402,-94.550201,America/Chicago,2012-03-16 18:57:48,2012-03-16 00:31:02
Mozilla/4.0 ,Windows NT 6.1,t.co,eugene-or.gov,Eugene,44.048599,-123.219704,America/Los_Angeles,2012-03-16 18:57:48,2012-03-12 20:20:54
Mozilla/5.0 ,Ubuntu 14.04.6,facebook.com,nasa.gov,Cagliari,39.216702,9.1167,Europe/Rome,2012-03-16 18:57:49,2012-03-16 18:34:14
Mozilla/5.0 ,"Windows NT 5.1) AppleWebKit/535.2 (KHTML, like Gecko) Chrome/15.0.854.0 Safari/535.2",facebook.com,nasa.gov,Davao,7.0731,125.612801,Asia/Manila,2012-03-16 18:57:52,2012-03-16 18:34:14
Mozilla/5.0 ,"Windows NT 5.1) AppleWebKit/535.11 (KHTML, like Gecko) Chrome/17.0.963.79 Safari/535.11",facebook.com,crh.noaa.gov,Indianapolis,39.806198,-86.140701,America/Indianapolis,2012-03-16 18:57:57,2012-03-16 16:27:27
Mozilla/4.0 ,Windows NT 6.1,support.accuchinesmanufacturing.net,thomas.loc.gov,Burlington,42.5051,-71.204697,America/New_York,2012-03-16 18:57:57,2012-03-06 23:07:00
Mozilla/5.0 ,iPhone,m.facebook.com,montgomerycountymd.gov,Silver Spring,39.089802,-77.061096,America/New_York,2012-03-16 18:58:10,2012-03-16 13:43:52
Mozilla/4.0 ,Windows NT 6.1,togetter.com,navy.mil,Nogata,33.733299,130.733307,Asia/Tokyo,2012-03-16 18:58:11,2010-03-05 17:30:38
Mozilla/5.0 ,Windows NT 6.1,links.govdelivery.com,public.health.oregon.gov,Brooklyn,40.6525,-73.955399,America/New_York,2012-03-16 18:58:18,2011-11-22 23:31:21
Mozilla/5.0 ,Windows NT 6.1,roosterteeth.com,irs.gov,Christchurch,50.733299,-1.7667,Europe/London,2012-03-16 18:58:19,2012-03-14 16:24:17
Mozilla/5.0 ,Windows NT 5.1,iava.org,stripes.com,Addison,41.931,-88.009003,America/Chicago,2012-03-16 18:58:24,2012-03-16 13:26:31
Mozilla/5.0 ,Windows NT 6.1,t.co,nasa.gov,Haverhill,42.791401,-71.132202,America/New_York,2012-03-16 18:58:27,2012-03-16 14:30:47
Mozilla/4.0 ,Windows NT 6.1,t.co,whitehouse.gov,Annapolis,38.986099,-76.513702,America/New_York,2012-03-16 18:58:32,2012-03-16 14:35:46
Mozilla/5.0 ,Linux,m.facebook.com,army.mil,Santa Cruz,37.0448,-122.102097,America/Los_Angeles,2012-03-16 18:58:39,2012-03-15 16:32:27
Mozilla/5.0 ,Windows NT 5.1,facebook.com,army.mil,Cleveland,41.474899,-81.7388,America/New_York,2012-03-16 18:58:39,2012-03-16 15:28:54
Mozilla/5.0 ,Windows NT 6.0,indy.gov,indy.gov,Wayne,40.054798,-75.408302,America/New_York,2012-03-16 18:58:41,2012-03-12 15:58:45
Mozilla/5.0 ,iPhone,m.facebook.com,whitehouse.gov,Cedar Park,30.4998,-97.808197,America/Chicago,2012-03-16 18:58:41,2012-03-15 19:47:36
Mozilla/5.0 ,iPad,twitter.com,nasa.gov,Birkenhead,53.400002,-3.0333,Europe/London,2012-03-16 18:58:44,2012-03-16 13:29:58
Mozilla/5.0 ,Windows NT 6.1,facebook.com,nasa.gov,Alicante,38.349998,-0.4833,Europe/Madrid,2012-03-16 18:58:45,2012-03-16 18:34:14
Mozilla/5.0 ,"Windows NT 6.1) AppleWebKit/535.11 (KHTML, like Gecko) Chrome/17.0.963.79 Safari/535.11",t.co,louise.house.gov,Chicago,41.8675,-87.6744,America/Chicago,2012-03-16 18:58:45,2012-03-13 14:57:18
Mozilla/5.0 ,"Windows NT 6.1) AppleWebKit/535.8 (KHTML, like Gecko) Chrome/18.6.872.0 Safari/535.8",barackobama.com,whitehouse.gov,Ceska Lipa,50.6833,14.55,Europe/Prague,2012-03-16 18:58:45,2012-03-15 12:23:59
Mozilla/4.0 ,Windows NT 6.1,aashtojournal.org,thomas.loc.gov,Albany,42.670601,-73.779099,America/New_York,2012-03-16 18:58:48,2011-11-09 17:20:36
Mozilla/5.0 ,Windows NT 6.1,facebook.com,robotics.nasa.gov,New Berlin,42.972099,-88.130501,America/Chicago,2012-03-16 18:58:56,2012-03-16 18:40:20
Mozilla/4.0 ,Windows NT 6.1,t.co,whitehouse.gov,Annapolis,38.986099,-76.513702,America/New_York,2012-03-16 18:58:58,2012-03-14 14:34:23
Mozilla/5.0 ,Windows NT 6.1,t.co,nature.nps.gov,Washington,38.904202,-77.031998,America/New_York,2012-03-16 18:58:59,2012-03-16 18:17:13
Mozilla/5.0 ,"Windows NT 6.1) AppleWebKit/535.11 (KHTML, like Gecko) Chrome/17.0.963.79 Safari/535.11",t.co,nasa.gov,Santos Dumont,-21.4667,-43.5667,America/Sao_Paulo,2012-03-16 18:59:01,2012-03-16 14:30:47
Mozilla/5.0 ,Windows NT 6.1,t.co,whitehouse.gov,Annapolis,38.986099,-76.513702,America/New_York,2012-03-16 18:59:01,2012-03-16 14:35:46
Mozilla/4.0 ,Windows NT 6.1,facebook.com,nasa.gov,Bangkok,13.75,100.516701,Asia/Bangkok,2012-03-16 18:59:02,2012-03-16 18:34:14
Mozilla/5.0 ,Windows NT 6.1,plus.url.google.com,nasa.gov,Pullman,46.732201,-117.245499,America/Los_Angeles,2012-03-16 18:59:04,2012-03-16 18:34:14
Mozilla/5.0 ,Windows NT 6.1,t.co,whitehouse.gov,Annapolis,38.986099,-76.513702,America/New_York,2012-03-16 18:59:04,2012-03-14 14:34:23
Mozilla/4.0 ,Windows NT 6.1,facebook.com,nasa.gov,Bangkok,13.75,100.516701,Asia/Bangkok,2012-03-16 18:59:06,2012-03-16 18:34:14
Mozilla/4.0 ,Windows NT 6.1,barackobama.com,whitehouse.gov,San Marcos,33.137001,-117.1679,America/Los_Angeles,2012-03-16 18:59:10,2012-03-15 12:23:59
Mozilla/5.0 ,Windows NT 6.1,facebook.com,nasa.gov,Harrisville,41.973,-71.642197,America/New_York,2012-03-16 18:59:09,2012-03-16 18:34:14
Mozilla/5.0 ,iPhone,twitter.com,senate.gov,Fountain,35.694199,-77.629402,America/New_York,2012-03-16 18:59:09,2012-03-13 20:21:02
Mozilla/5.0 ,Windows NT 6.1,facebook.com,nasa.gov,Stuttgart,48.766701,9.1833,Europe/Berlin,2012-03-16 18:59:12,2012-03-16 18:34:14
Mozilla/4.0 ,Windows NT 6.1,yandex.ru,state.gov,Moscow,55.752201,37.615601,Europe/Moscow,2012-03-16 18:59:12,2011-05-26 07:55:59
Mozilla/5.0 ,Windows NT 6.1,linkedin.com,forecast.weather.gov,Northridge,34.2346,-118.519302,America/Los_Angeles,2012-03-16 18:59:19,2011-05-01 21:30:00
Mozilla/5.0 ,Linux,t.co,nasa.gov,Holle,52.083302,10.15,Europe/Berlin,2012-03-16 18:59:18,2012-03-16 14:30:47
Mozilla/5.0 ,Macintosh,t.co,fairfaxcounty.gov,Thurmont,39.5928,-77.423897,America/New_York,2012-03-16 18:59:23,2012-03-16 16:50:58
Mozilla/5.0 ,Windows NT 6.1,t.co,nasa.gov,Norrkg,58.599998,16.1833,Europe/Stockholm,2012-03-16 18:59:25,2012-03-16 14:30:47
Mozilla/5.0 ,"Windows NT 6.1) AppleWebKit/535.11 (KHTML, like Gecko) Chrome/17.0.963.79 Safari/535.11",t.co,nasa.gov,Santos Dumont,-21.4667,-43.5667,America/Sao_Paulo,2012-03-16 18:59:29,2012-03-15 13:06:42
Mozilla/5.0 ,Windows NT 6.1,t.co,nasa.gov,Norrkg,58.599998,16.1833,Europe/Stockholm,2012-03-16 18:59:30,2012-03-13 20:33:30
Mozilla/4.0 ,Windows NT 6.1,36ohk6dgmcd1n-c.c.yom.mail.yahoo.net,grants.gov,Hagerstown,39.629101,-77.712799,America/New_York,2012-03-16 18:59:30,2012-03-08 14:55:39
Mozilla/5.0 ,Windows NT 6.1,facebook.com,nasa.gov,Arlington,38.878201,-77.1054,America/New_York,2012-03-16 18:59:35,2012-03-16 18:34:14
Mozilla/5.0 ,iPhone,twitter.com,nasa.gov,London,51.500198,-0.1262,Europe/London,2012-03-16 18:59:39,2012-03-16 14:30:47
Mozilla/4.0 ,Windows NT 6.1,army.mil,army.mil,Akron,41.075199,-81.458099,America/New_York,2012-03-16 18:59:41,2012-01-24 21:27:48
Mozilla/4.0 ,Windows NT 6.1,t.co,whitehouse.gov,Annapolis,38.986099,-76.513702,America/New_York,2012-03-16 18:59:42,2012-03-14 14:34:23
Mozilla/4.0 ,Windows NT 6.1,t.co,nih.gov,Cadillac,44.256401,-85.534798,America/New_York,2012-03-16 18:59:47,2012-03-16 14:09:45
Mozilla/5.0 ,iPhone,t.co,forecast.weather.gov,Cathedral City,33.820499,-116.458603,America/Los_Angeles,2012-03-16 18:59:45,2011-05-01 21:30:00
Mozilla/5.0 ,Windows NT 6.0,facebook.com,nasa.gov,Cincinnati,39.169899,-84.485901,America/New_York,2012-03-16 18:59:46,2012-03-16 18:34:14
Mozilla/5.0 ,Windows NT 6.1,facebook.com,nasa.gov,Acapulco,16.85,-99.916702,America/Mexico_City,2012-03-16 18:59:48,2012-03-16 18:34:14
Mozilla/4.0 ,Windows NT 6.1,t.co,whitehouse.gov,Annapolis,38.986099,-76.513702,America/New_York,2012-03-16 18:59:50,2012-03-14 14:34:23
Mozilla/5.0 ,Macintosh,t.co,whitehouse.gov,Lausanne,46.533298,6.6667,Europe/Zurich,2012-03-16 18:59:52,2012-03-15 12:23:59
Mozilla/5.0 ,"Windows NT 6.0) AppleWebKit/535.11 (KHTML, like Gecko) Chrome/17.0.963.79 Safari/535.11",facebook.com,nasa.gov,Antwerp,51.216702,4.4167,Europe/Brussels,2012-03-16 18:59:53,2012-03-16 18:34:14
Mozilla/4.0 ,Windows NT 6.1,t.co,whitehouse.gov,Annapolis,38.986099,-76.513702,America/New_York,2012-03-16 18:59:57,2012-03-16 14:35:46
Mozilla/4.0 ,Windows NT 6.1,facebook.com,nasa.gov,Burtonsville,39.106098,-76.927597,America/New_York,2012-03-16 18:59:58,2012-03-16 18:34:14
Mozilla/5.0 ,iPhone,twitter.com,fda.gov,Lexington,38.0047,-84.533401,America/New_York,2012-03-16 18:59:58,2012-03-16 16:45:02
Mozilla/5.0 ,Linux,t.co,whitehouse.gov,Woodstock,34.118999,-84.447701,America/New_York,2012-03-16 19:00:01,2012-03-15 12:23:59
Mozilla/4.0 ,Windows NT 6.1,barackobama.com,whitehouse.gov,Washington,38.909698,-77.023102,America/New_York,2012-03-16 19:00:02,2012-03-15 12:23:59
Mozilla/5.0 ,Linux,m.facebook.com,army.mil,Santa Cruz,37.0448,-122.102097,America/Los_Angeles,2012-03-16 19:00:02,2012-03-15 16:32:27
Mozilla/5.0 ,Macintosh,t.co,whitehouse.gov,Portland,45.518398,-122.655403,America/Los_Angeles,2012-03-16 19:00:05,2012-03-15 19:47:36
Mozilla/5.0 ,Windows NT 6.1,facebook.com,nasa.gov,Blaichach,47.533298,10.2667,Europe/Berlin,2012-03-16 19:00:06,2012-03-16 18:34:14
Mozilla/4.0 ,Windows NT 6.1,facebook.com,af.mil,North Las Vegas,36.253601,-115.145897,America/Los_Angeles,2012-03-16 19:00:17,2012-03-16 14:54:15
Mozilla/5.0 ,Windows NT 6.1,t.co,nasa.gov,London,51.500198,-0.1262,Europe/London,2012-03-16 19:00:18,2012-03-16 13:24:26
Mozilla/5.0 ,iPhone,twitter.com,fda.gov,Mexico,19.4342,-99.138603,America/Mexico_City,2012-03-16 19:00:23,2012-03-16 16:45:02
Mozilla/5.0 ,Windows NT 6.1,t.co,memory.loc.gov,Normal,40.5103,-88.998001,America/Chicago,2012-03-16 19:00:31,2012-03-16 14:50:00
Mozilla/5.0 ,Windows NT 6.1,facebook.com,nasa.gov,Lille,50.633301,3.0667,Europe/Paris,2012-03-16 19:00:39,2012-03-16 18:34:14
Mozilla/5.0 ,Windows NT 6.1,facebook.com,nasa.gov,Wantage,51.583302,-1.4,Europe/London,2012-03-16 19:00:40,2012-03-16 18:34:14
Mozilla/5.0 ,Windows NT 6.1,ronpauldelegates.com,sos.ca.gov,Escondido,33.134899,-117.041603,America/Los_Angeles,2012-03-16 19:00:51,2011-05-20 23:09:18
Mozilla/5.0 ,iPhone,m.facebook.com,nasa.gov,Daly City,37.6786,-122.476402,America/Los_Angeles,2012-03-16 19:00:52,2012-03-08 15:05:52
Mozilla/5.0 ,"Windows NT 6.1) AppleWebKit/535.11 (KHTML, like Gecko) Chrome/17.0.963.79 Safari/535.11",t.co,harkin.senate.gov,Washington,38.906799,-77.042702,America/New_York,2012-03-16 19:00:58,2012-03-16 13:32:09
Mozilla/5.0 ,Windows NT 6.1,skihood.com,forecast.weather.gov,Vancouver,45.644699,-122.629799,America/Los_Angeles,2012-03-16 19:01:05,2011-02-13 07:49:47
Mozilla/5.0 ,"Windows NT 6.1) AppleWebKit/535.11 (KHTML, like Gecko) Chrome/17.0.963.79 Safari/535.11",t.co,nasa.gov,Santos Dumont,-21.4667,-43.5667,America/Sao_Paulo,2012-03-16 19:01:13,2012-03-14 14:52:23
Mozilla/5.0 ,Macintosh,barackobama.com,whitehouse.gov,Surry Hills,-33.886101,151.214401,Australia/NSW,2012-03-16 19:01:13,2012-03-15 12:23:59
Mozilla/5.0 ,Windows NT 5.1,groupon.com,nps.gov,Matawan,40.416901,-74.257896,America/New_York,2012-03-16 19:01:15,2012-03-02 17:02:11
Opera/9.80 ,Windows NT 6.0,facebook.com,nasa.gov,Athens,37.983299,23.733299,Europe/Athens,2012-03-16 19:01:20,2012-03-16 18:34:14
Mozilla/4.0 ,Windows NT 6.1,t.co,nasa.gov,Seattle,47.537399,-122.391098,America/Los_Angeles,2012-03-16 19:01:22,2012-03-15 18:08:35
Mozilla/5.0 ,Windows NT 5.2,plus.url.google.com,nasa.gov,New Ipswich,42.748798,-71.875099,America/New_York,2012-03-16 19:01:27,2012-03-16 18:34:14
Mozilla/5.0 ,Macintosh,facebook.com,whitehouse.gov,Lyons,32.165199,-82.2892,America/New_York,2012-03-16 19:01:28,2012-03-15 15:11:58
Mozilla/5.0 ,Windows NT 6.1,t.co,blog.usa.gov,Washington,38.909698,-77.023102,America/New_York,2012-03-16 19:01:34,2012-03-15 17:36:46
Mozilla/5.0 ,Linux,m.facebook.com,army.mil,Atwater,37.3255,-120.636703,America/Los_Angeles,2012-03-16 19:01:36,2012-03-16 15:28:54
Mozilla/5.0 ,iPhone,twitter.com,kingcounty.gov,Evanston,42.058601,-87.684502,America/Chicago,2012-03-16 19:01:44,2012-03-02 23:34:57
Mozilla/5.0 ,Windows NT 6.1,nix.nasa.gov,ntrs.nasa.gov,Rhoon,51.866699,4.4333,Europe/Amsterdam,2012-03-16 19:01:46,2012-03-16 11:14:25
Mozilla/5.0 ,Windows NT 6.1,facebook.com,nasa.gov,Beirut,33.871899,35.509701,Asia/Beirut,2012-03-16 19:01:51,2012-03-16 18:34:14
Mozilla/5.0 ,Windows NT 6.1,t.co,usa.gov,Caracas,10.5,-66.916702,America/Caracas,2012-03-16 19:01:54,2012-02-28 19:49:37
Mozilla/5.0 ,"Windows NT 6.1) AppleWebKit/535.11 (KHTML, like Gecko) Chrome/17.0.963.79 Safari/535.11",t.co,earthobservatory.nasa.gov,Jiddah,21.516899,39.2192,Asia/Riyadh,2012-03-16 19:01:53,2012-03-15 11:43:20
Mozilla/5.0 ,"Windows NT 6.1) AppleWebKit/535.11 (KHTML, like Gecko) Chrome/17.0.963.79 Safari/535.11",facebook.com,nasa.gov,Montevideo,-34.858101,-56.170799,America/Montevideo,2012-03-16 19:01:56,2012-03-16 18:34:14
Mozilla/5.0 ,Android,t.co,kingcounty.gov,Denver,39.743698,-104.979301,America/Denver,2012-03-16 19:01:57,2012-03-02 23:34:57
Mozilla/5.0 ,Macintosh,t.co,fairfaxcounty.gov,Sterling,39.013802,-77.398697,America/New_York,2012-03-16 19:01:57,2012-03-16 16:50:58
Mozilla/4.0 ,Windows NT 6.1,hootsuite.com,blog.usa.gov,Pleasanton,37.662399,-121.896301,America/Los_Angeles,2012-03-16 19:02:01,2012-03-15 17:36:46
Mozilla/5.0 ,Linux,t.co,nasa.gov,Columbia,38.938301,-92.299004,America/Chicago,2012-03-16 19:02:03,2012-03-16 14:30:47
Mozilla/5.0 ,Windows NT 6.1,t.co,blog.usa.gov,Concord,37.9529,-122.022499,America/Los_Angeles,2012-03-16 19:02:05,2012-03-15 17:36:46
Mozilla/5.0 ,Windows NT 6.1,facebook.com,nasa.gov,Rautalampi,62.633301,26.8333,Europe/Helsinki,2012-03-16 19:02:09,2012-03-16 18:34:14
Mozilla/4.0 ,Windows NT 6.1,messages.finance.yahoo.com,fda.gov,Horsham,40.188301,-75.1502,America/New_York,2012-03-16 19:02:11,2012-03-16 15:24:34
Mozilla/5.0 ,Windows NT 5.1,t.co,usa.gov,Mendoza,-32.883301,-68.816704,America/Argentina/Mendoza,2012-03-16 19:02:11,2012-02-28 19:49:37
Mozilla/5.0 ,iPhone,t.co,montgomerycountymd.gov,Ruther Glen,37.955002,-77.437202,America/New_York,2012-03-16 19:02:16,2012-03-16 13:43:52
Mozilla/5.0 ,Macintosh,t.co,kingcounty.gov,Seattle,47.631901,-122.296799,America/Los_Angeles,2012-03-16 19:02:17,2012-03-02 23:34:57
Mozilla/4.0 ,Windows NT 6.1,facebook.com,ct.gov,Norwalk,41.105701,-73.422897,America/New_York,2012-03-16 19:02:19,2012-03-16 15:21:14
Mozilla/5.0 ,"Windows NT 5.1) AppleWebKit/535.11 (KHTML, like Gecko) Chrome/17.0.963.79 Safari/535.11",t.co,apod.nasa.gov,Seoul,37.566399,126.999702,Asia/Seoul,2012-03-16 19:02:21,2012-03-14 15:32:37
Mozilla/5.0 ,iPod,twitter.com,apod.nasa.gov,SPaulo,-23.5333,-46.616699,America/Sao_Paulo,2012-03-16 19:02:22,2012-03-16 18:37:48
Mozilla/5.0 ,"Windows NT 6.1) AppleWebKit/535.11 (KHTML, like Gecko) Chrome/17.0.963.79 Safari/535.11",t.co,nasa.gov,Santos Dumont,-21.4667,-43.5667,America/Sao_Paulo,2012-03-16 19:02:27,2012-03-12 15:13:15
Mozilla/5.0 ,"Windows NT 5.1) AppleWebKit/535.11 (KHTML, like Gecko) Chrome/17.0.963.79 Safari/535.11",facebook.com,nasa.gov,Birmingham,52.466702,-1.9167,Europe/London,2012-03-16 19:02:28,2012-03-16 18:34:14
Mozilla/5.0 ,iPhone,twitter.com,healthfinder.gov,Salam,37.966702,23.483299,Europe/Athens,2012-03-16 19:02:30,2012-03-12 12:32:02
Mozilla/4.0 ,Windows NT 6.1,hispanicnewsnetwork.blogspot.com,ustreas.gov,Little Elm,33.180901,-96.917702,America/Chicago,2012-03-16 19:02:33,2010-03-24 13:34:59
Mozilla/5.0 ,Windows NT 5.1,t.co,homeland.house.gov,Snellville,33.8297,-84.020599,America/New_York,2012-03-16 19:02:34,2012-03-16 18:12:49
Mozilla/4.0 ,Windows NT 6.1,bizjournals.com,justice.gov,Atlanta,33.8004,-84.386497,America/New_York,2012-03-16 19:02:45,2012-03-15 19:08:07
Mozilla/5.0 ,Windows NT 6.1,t.co,nasa.gov,Lvov,49.833302,24.0,Europe/Uzhgorod,2012-03-16 19:02:45,2012-03-16 14:30:47
Mozilla/5.0 ,Windows NT 6.1,t.co,whitehouse.gov,Manchester,53.5,-2.2167,Europe/London,2012-03-16 19:02:50,2012-03-14 15:37:26
Mozilla/5.0 ,Windows NT 6.1,facebook.com,nasa.gov,Mossman,-16.4667,145.366699,Australia/Queensland,2012-03-16 19:02:50,2012-03-16 18:34:14
Mozilla/5.0 ,Macintosh,facebook.com,faa.gov,Fairfield,38.257999,-122.066803,America/Los_Angeles,2012-03-16 19:02:50,2012-02-29 15:36:26
Mozilla/5.0 ,Windows NT 6.1,t.co,nih.gov,Cadillac,44.256401,-85.534798,America/New_York,2012-03-16 19:02:53,2012-03-16 14:09:45
Mozilla/5.0 ,Windows NT 6.1,facebook.com,nasa.gov,Dietenheim,48.216702,10.0667,Europe/Berlin,2012-03-16 19:02:52,2012-03-16 18:34:14
Mozilla/5.0 ,Windows NT 6.1,automd.com,odi.nhtsa.dot.gov,Spokane,47.694302,-117.454002,America/Los_Angeles,2012-03-16 19:02:58,2012-03-15 18:03:50
Mozilla/5.0 ,Ubuntu 14.04.6,facebook.com,nasa.gov,Grand Island,40.948002,-98.261902,America/Chicago,2012-03-16 19:02:57,2012-03-16 18:34:14
Mozilla/5.0 ,Windows NT 6.1,facebook.com,apps.mhf.dod.mil,Miami,25.761499,-80.2939,America/New_York,2012-03-16 19:02:58,2012-03-16 15:22:27
Mozilla/5.0 ,iPhone,m.facebook.com,cdcr.ca.gov,Bakersfield,35.549801,-118.917099,America/Los_Angeles,2012-03-16 19:03:00,2009-07-23 14:55:50
Opera/9.80 ,Windows NT 6.1,facebook.com,nasa.gov,Belgrade,44.8186,20.4681,Europe/Belgrade,2012-03-16 19:03:02,2012-03-16 18:34:14
Mozilla/5.0 ,Windows NT 6.0,facebook.com,nasa.gov,Brno,49.200001,16.633301,Europe/Prague,2012-03-16 19:03:12,2012-03-16 18:34:14
Mozilla/4.0 ,Windows NT 6.1,t.co,hhs.gov,Annapolis,38.986099,-76.513702,America/New_York,2012-03-16 19:03:13,2012-03-16 16:55:06
Mozilla/5.0 ,Ubuntu 14.04.6,facebook.com,nasa.gov,Santa Cruz,36.989899,-122.060303,America/Los_Angeles,2012-03-16 19:03:16,2012-03-16 14:30:47
Mozilla/5.0 ,iPad,twitter.com,fda.gov,Portland,45.5154,-122.498001,America/Los_Angeles,2012-03-16 19:03:17,2012-03-16 16:45:02
Mozilla/5.0 ,Linux,m.facebook.com,nasa.gov,Port Orchard,47.5061,-122.620796,America/Los_Angeles,2012-03-16 19:03:17,2012-03-16 14:30:47
Mozilla/4.0 ,Windows NT 6.1,facebook.com,nasa.gov,Aveiro,40.633301,-8.65,Europe/Lisbon,2012-03-16 19:03:20,2012-03-16 18:34:14
Mozilla/4.0 ,Windows NT 6.1,shrewsbury-ma.gov,shrewsbury-ma.gov,Shrewsbury,42.286499,-71.714699,America/New_York,2012-03-16 19:03:24,2010-05-12 13:53:31
Mozilla/4.0 ,Windows NT 6.1,shrewsbury-ma.gov,shrewsbury-ma.gov,Shrewsbury,42.286499,-71.714699,America/New_York,2012-03-16 19:03:24,2010-05-12 13:55:06
Mozilla/5.0 ,Windows NT 6.1,mint.com,publications.usa.gov,Birmingham,33.505402,-86.798698,America/Chicago,2012-03-16 19:03:24,2011-09-10 02:57:49
Mozilla/5.0 ,Windows NT 6.0,facebook.com,healthyfamilies.ca.gov,Bell,33.976101,-118.153503,America/Los_Angeles,2012-03-16 19:03:29,2010-07-19 20:25:17
Mozilla/5.0 ,Macintosh,facebook.com,blog.usa.gov,San Carlos,37.498001,-122.267197,America/Los_Angeles,2012-03-16 19:03:33,2012-03-15 17:36:46
Mozilla/4.0 ,Windows NT 6.1,t.co,cbo.gov,Framingham,42.278801,-71.443497,America/New_York,2012-03-16 19:03:34,2012-03-16 14:41:30
Mozilla/4.0 ,Windows NT 6.1,answers.usa.gov,answers.usa.gov,Durham,35.9925,-78.901703,America/New_York,2012-03-16 19:03:38,2011-09-20 14:07:53
Mozilla/4.0 ,Windows NT 6.1,shrewsbury-ma.gov,shrewsbury-ma.gov,Shrewsbury,42.286499,-71.714699,America/New_York,2012-03-16 19:03:38,2010-05-12 13:53:31
Mozilla/5.0 ,Windows NT 6.1,t.co,whitehouse.gov,Silver Spring,39.089802,-77.061096,America/New_York,2012-03-16 19:03:39,2012-03-16 15:26:24
Mozilla/4.0 ,Windows NT 6.1,shrewsbury-ma.gov,shrewsbury-ma.gov,Shrewsbury,42.286499,-71.714699,America/New_York,2012-03-16 19:03:38,2010-05-12 13:55:06
Mozilla/4.0 ,Windows NT 6.1,t.co,michigan.gov,Columbus,39.996799,-82.988197,America/New_York,2012-03-16 19:03:39,2012-03-16 12:31:26
Mozilla/5.0 ,Windows NT 5.1,t.co,fda.gov,Corinth,44.982101,-69.013298,America/New_York,2012-03-16 19:03:49,2012-03-16 16:45:02
Mozilla/4.0 ,Windows NT 6.1,shrewsbury-ma.gov,shrewsbury-ma.gov,Shrewsbury,42.286499,-71.714699,America/New_York,2012-03-16 19:03:50,2010-05-12 13:53:31
Mozilla/4.0 ,Windows NT 6.1,shrewsbury-ma.gov,shrewsbury-ma.gov,Shrewsbury,42.286499,-71.714699,America/New_York,2012-03-16 19:03:50,2010-05-12 13:55:06
Mozilla/5.0 ,Macintosh,t.co,kingcounty.gov,Seattle,47.634399,-122.342201,America/Los_Angeles,2012-03-16 19:04:01,2012-03-02 23:34:57
Mozilla/5.0 ,Windows NT 6.1,t.co,blog.usa.gov,Chicago,41.8675,-87.6744,America/Chicago,2012-03-16 19:04:00,2012-03-15 17:36:46
Mozilla/5.0 ,Windows NT 6.1,iava.org,stripes.com,Madison,43.0737,-89.527397,America/Chicago,2012-03-16 19:04:04,2012-03-16 13:00:48
Mozilla/5.0 ,Windows NT 6.1,hootsuite.com,census.gov,Jackson,42.246799,-84.362099,America/New_York,2012-03-16 19:04:06,2012-03-16 14:43:36
Opera/9.30 ,Nintendo Wii,mobile.latimes.com,ag.ca.gov,Orange,33.798302,-117.782402,America/Los_Angeles,2012-03-16 19:04:06,2012-03-15 20:16:37
Mozilla/5.0 ,Windows NT 6.1,t.co,whitehouse.gov,Silver Spring,39.089802,-77.061096,America/New_York,2012-03-16 19:04:07,2012-03-16 15:26:24
Mozilla/5.0 ,iPhone,twitter.com,nasa.gov,Pereira,4.8133,-75.696098,America/Bogota,2012-03-16 19:04:08,2012-03-12 15:13:15
Mozilla/5.0 ,Windows NT 5.1,facebook.com,nasa.gov,Yacolt,45.838001,-122.387001,America/Los_Angeles,2012-03-16 19:04:11,2012-03-16 18:34:14
Mozilla/5.0 ,Windows NT 6.1,aashtojournal.org,appropriations.senate.gov,Silver Spring,39.004601,-77.036903,America/New_York,2012-03-16 19:04:13,2012-03-15 19:18:33
Mozilla/5.0 ,Windows NT 5.1,t.co,irs.gov,Bethesda,39.003201,-77.160202,America/New_York,2012-03-16 19:04:23,2012-02-09 00:00:36
Mozilla/4.0 ,Windows NT 6.1,t.co,whitehouse.gov,Raleigh,35.827801,-78.642097,America/New_York,2012-03-16 19:04:25,2012-03-15 12:23:59
Mozilla/5.0 ,Windows NT 6.0,t.co,houstontx.gov,Bellaire,29.7078,-95.465698,America/Chicago,2012-03-16 19:04:25,2012-03-16 19:01:17
Mozilla/5.0 ,"Windows NT 6.1) AppleWebKit/535.11 (KHTML, like Gecko) Chrome/17.0.963.79 Safari/535.11",t.co,apod.nasa.gov,Colombo,-25.2833,-49.233299,America/Sao_Paulo,2012-03-16 19:04:26,2012-03-16 18:37:48
Mozilla/5.0 ,"Windows NT 5.1) AppleWebKit/535.11 (KHTML, like Gecko) Chrome/17.0.963.79 Safari/535.11",facebook.com,peacecorps.gov,San Jos,9.9333,-84.083298,America/Costa_Rica,2012-03-16 19:04:29,2011-12-06 16:33:27
Mozilla/5.0 ,Macintosh,itunes.apple.com,blogs.loc.gov,Beirut,33.871899,35.509701,Asia/Beirut,2012-03-16 19:04:31,2012-02-25 01:35:19
Mozilla/5.0 ,Macintosh,facebook.com,nasa.gov,Bystra,49.633301,19.200001,Europe/Warsaw,2012-03-16 19:04:33,2012-03-16 18:34:14
Mozilla/5.0 ,Macintosh,iava.org,stripes.com,Platteville,42.752602,-90.489098,America/Chicago,2012-03-16 19:04:34,2012-03-16 13:00:48
Mozilla/5.0 ,Windows NT 6.1,t.co,fda.gov,Toledo,41.703499,-83.605202,America/New_York,2012-03-16 19:04:35,2012-03-16 16:45:02
Mozilla/4.0 ,Windows NT 6.1,t.co,usa.gov,Hilton Head Island,32.1964,-80.741997,America/New_York,2012-03-16 19:04:38,2012-02-28 19:49:37
Mozilla/5.0 ,Windows NT 5.1,bitly.com,cancer.gov,Iowa City,41.664001,-91.544701,America/Chicago,2012-03-16 19:04:47,2012-03-09 22:12:32
Mozilla/5.0 ,"Windows NT 6.1) AppleWebKit/535.11 (KHTML, like Gecko) Chrome/17.0.963.79 Safari/535.11",t.co,apod.nasa.gov,Natal,-5.7833,-35.216702,America/Recife,2012-03-16 19:04:56,2012-03-16 18:37:48
Mozilla/5.0 ,Macintosh,facebook.com,nasa.gov,Escalaplano,39.624401,9.3522,Europe/Rome,2012-03-16 19:04:58,2012-03-16 18:34:14
Mozilla/5.0 ,Linux,m.facebook.com,irs.gov,Henderson,37.824902,-87.533401,America/New_York,2012-03-16 19:04:59,2012-02-09 00:00:36
Mozilla/5.0 ,Windows NT 6.1,facebook.com,nasa.gov,Mastic Beach,40.766201,-72.8377,America/New_York,2012-03-16 19:05:01,2012-03-16 18:34:14
Mozilla/5.0 ,"Windows NT 6.1) AppleWebKit/535.11 (KHTML, like Gecko) Chrome/17.0.963.79 Safari/535.11",roosterteeth.com,irs.gov,Stare Mesto,49.083302,17.4667,Europe/Prague,2012-03-16 19:05:05,2012-03-14 16:24:17
Mozilla/5.0 ,Windows NT 6.1,facebook.com,nasa.gov,Lisboa,38.716702,-9.1333,Europe/Lisbon,2012-03-16 19:05:07,2012-03-16 14:30:47
Mozilla/5.0 ,Windows NT 5.0,dbhddjobs.com,dhr.georgia.gov,Southfield,42.465,-83.230698,America/New_York,2012-03-16 19:05:07,2009-08-25 15:11:50
Mozilla/5.0 ,Windows NT 6.1,facebook.com,nasa.gov,Tuxtla Gutiez,16.75,-93.116699,America/Mexico_City,2012-03-16 19:05:09,2012-03-16 18:34:14
Mozilla/5.0 ,Windows NT 6.1,t.co,blog.usa.gov,Philadelphia,39.996799,-75.148499,America/New_York,2012-03-16 19:05:12,2012-03-15 17:36:46
Mozilla/5.0 ,iPhone,twitter.com,mdt.mt.gov,Lifford,54.831902,-7.4836,Europe/Dublin,2012-03-16 19:05:13,2012-03-16 18:44:38
Mozilla/5.0 ,iPad,twitter.com,blogs.loc.gov,Leesburg,28.739401,-81.855499,America/New_York,2012-03-16 19:05:18,2012-03-15 14:48:15
Mozilla/5.0 ,Windows NT 6.1,t.co,nature.nps.gov,Washington,38.904202,-77.031998,America/New_York,2012-03-16 19:05:17,2012-03-16 18:17:13
Mozilla/4.0 ,Windows NT 6.1,facebook.com,nasa.gov,Bakersfield,35.549801,-118.917099,America/Los_Angeles,2012-03-16 19:05:18,2012-03-16 14:30:47
Mozilla/5.0 ,Windows NT 6.1,gazette.com,regulations.gov,Colorado Springs,38.8312,-104.808197,America/Denver,2012-03-16 19:05:23,2012-03-15 19:49:34
Mozilla/5.0 ,"Windows NT 6.1) AppleWebKit/535.11 (KHTML, like Gecko) Chrome/17.0.963.79 Safari/535.11",t.co,defense.gov,Hughesville,38.523102,-76.790604,America/New_York,2012-03-16 19:05:24,2012-03-15 20:26:44
Mozilla/4.0 ,Windows NT 6.1,shrewsbury-ma.gov,shrewsbury-ma.gov,Westborough,42.2658,-71.610497,America/New_York,2012-03-16 19:05:25,2010-05-12 13:55:06
Mozilla/4.0 ,Windows NT 6.1,shrewsbury-ma.gov,shrewsbury-ma.gov,Westborough,42.2658,-71.610497,America/New_York,2012-03-16 19:05:25,2010-05-12 13:53:31
Mozilla/5.0 ,iPad,m.facebook.com,faa.gov,Palembang,-2.9167,104.75,Asia/Pontianak,2012-03-16 19:05:27,2012-02-29 15:36:26
Mozilla/5.0 ,Windows NT 6.1,facebook.com,blog.usa.gov,West Chester,39.9893,-75.612,America/New_York,2012-03-16 19:05:32,2012-03-15 17:36:46
Mozilla/5.0 ,"Windows NT 5.1) AppleWebKit/535.11 (KHTML, like Gecko) Chrome/17.0.963.79 Safari/535.11",facebook.com,nasa.gov,Pacifica,37.601002,-122.454498,America/Los_Angeles,2012-03-16 19:05:34,2012-03-16 18:34:14
Mozilla/5.0 ,Linux,m.facebook.com,nasa.gov,New York,40.761902,-73.976303,America/New_York,2012-03-16 19:05:41,2012-03-16 18:34:14
Mozilla/5.0 ,Windows NT 6.0,facebook.com,nasa.gov,ebro,59.283298,15.2167,Europe/Stockholm,2012-03-16 19:05:43,2012-03-16 18:34:14
Mozilla/4.0 ,Windows NT 6.1,facebook.com,forecast.weather.gov,San Diego,32.797699,-117.132202,America/Los_Angeles,2012-03-16 19:05:43,2012-03-15 22:11:39
Mozilla/5.0 ,Windows NT 6.1,facebook.com,nasa.gov,Manassas,38.739101,-77.4702,America/New_York,2012-03-16 19:05:45,2012-03-16 13:50:29
Mozilla/5.0 ,Macintosh,plus.url.google.com,nasa.gov,Tustin,33.7458,-117.795601,America/Los_Angeles,2012-03-16 19:05:45,2012-03-16 18:34:14
Mozilla/4.0 ,Windows NT 6.1,t.co,boxer.senate.gov,Washington,38.909698,-77.023102,America/New_York,2012-03-16 19:05:47,2012-03-16 17:45:41
Mozilla/5.0 ,Windows NT 6.1,facebook.com,nasa.gov,Liverpool,53.416698,-3.0,Europe/London,2012-03-16 19:05:45,2012-03-16 18:34:14
Mozilla/5.0 ,Linux,m.facebook.com,nasa.gov,Rotterdam,51.916698,4.5,Europe/Amsterdam,2012-03-16 19:05:47,2012-03-16 18:34:14
Mozilla/5.0 ,Windows NT 6.1,facebook.com,nasa.gov,Seattle,47.5951,-122.332603,America/Los_Angeles,2012-03-16 19:05:55,2012-03-16 18:34:14
Mozilla/5.0 ,Windows NT 6.1,t.co,nasa.gov,Cres,39.483299,-6.3667,Europe/Madrid,2012-03-16 19:05:58,2012-03-16 14:30:47
Mozilla/5.0 ,Windows NT 6.1,facebook.com,nasa.gov,Exeter,50.700001,-3.5333,Europe/London,2012-03-16 19:06:01,2012-03-16 18:34:14
Mozilla/5.0 ,iPhone,twitter.com,navy.mil,Brierley Hill,52.483299,-2.1167,Europe/London,2012-03-16 19:06:01,2012-03-16 16:09:24
Mozilla/5.0 ,iPad,twitter.com,fda.gov,Portland,45.5154,-122.498001,America/Los_Angeles,2012-03-16 19:06:02,2012-02-10 20:37:52
Mozilla/5.0 ,Windows NT 6.1,t.co,usaid.gov,Carlsbad,33.1357,-117.301903,America/Los_Angeles,2012-03-16 19:06:03,2012-03-16 18:58:56
Mozilla/5.0 ,Windows NT 5.1,facebook.com,blog.usa.gov,Saint George,33.1759,-80.575798,America/New_York,2012-03-16 19:06:05,2012-03-15 17:36:46
Mozilla/5.0 ,Macintosh,t.co,nature.nps.gov,Washington,38.904202,-77.031998,America/New_York,2012-03-16 19:06:08,2012-03-16 18:17:13
Mozilla/5.0 ,"Windows NT 5.1) AppleWebKit/535.11 (KHTML, like Gecko) Chrome/17.0.963.79 Safari/535.11",facebook.com,nasa.gov,Lyon,45.75,4.85,Europe/Paris,2012-03-16 19:06:15,2012-03-16 18:34:14
Mozilla/5.0 ,Linux,t.co,speaker.gov,Port Republic,38.493401,-76.517899,America/New_York,2012-03-16 19:06:16,2012-03-16 17:53:51
Mozilla/4.0 ,Windows NT 6.1,shrewsbury-ma.gov,shrewsbury-ma.gov,Westborough,42.2658,-71.610497,America/New_York,2012-03-16 19:06:18,2010-05-12 13:53:31
Mozilla/4.0 ,Windows NT 6.1,shrewsbury-ma.gov,shrewsbury-ma.gov,Westborough,42.2658,-71.610497,America/New_York,2012-03-16 19:06:18,2010-05-12 13:55:06
Mozilla/5.0 ,Macintosh,t.co,senate.gov,Cambridge,42.364601,-71.102798,America/New_York,2012-03-16 19:06:20,2012-03-15 22:41:15
Mozilla/5.0 ,"Windows NT 6.1) AppleWebKit/535.11 (KHTML, like Gecko) Chrome/17.0.963.79 Safari/535.11",seekingalpha.com,sec.gov,Costa Mesa,33.679298,-117.905502,America/Los_Angeles,2012-03-16 19:06:21,2012-03-14 15:00:36
